{"type": "FeatureCollection", "features": [{"type": "Feature", "geometry": {"type": "Point", "coordinates": [8.5101407, 47.3512469]}, "properties": {"amenity": null, "name": null}}, {"type": "Feature", "geometry": {"type": "Point", "coordinates": [8.510238, 47.3513467]}, "properties": {"amenity": null, "name": null}}, {"type": "Feature", "geometry": {"type": "Point", "coordinates": [8.5313604, 47.3648083]}, "properties": {"amenity": "fast_food", "name": "McDonald's"}}, {"type": "Feature", "geometry": {"type": "Point", "coordinates": [8.5356923, 47.3612318]}, "properties": {"amenity": "fast_food", "name": "Hafen Enge Beiz"}}, {"type": "Feature", "geometry": {"type": "Point", "coordinates": [8.544126, 47.3673633]}, "properties": {"amenity": "fast_food", "name": "Imbiss Riviera"}}, {"type": "Feature", "geometry": {"type": "Point", "coordinates": [8.4929412, 47.382807]}, "properties": {"amenity": "restaurant", "name": "UBS Restaurant Flur"}}, {"type": "Feature", "geometry": {"type": "Point", "coordinates": [8.5025715, 47.3814984]}, "properties": {"amenity": "restaurant", "name": "Shilla"}}, {"type": "Feature", "geometry": {"type": "Point", "coordinates": [8.5012681, 47.3825781]}, "properties": {"amenity": "restaurant", "name": "Da Cono"}}, {"type": "Feature", "geometry": {"type": "Point", "coordinates": [8.4978272, 47.3842422]}, "properties": {"amenity": "restaurant", "name": "Pizza Z\u00fcri"}}, {"type": "Feature", "geometry": {"type": "Point", "coordinates": [8.4964028, 47.3841009]}, "properties": {"amenity": "restaurant", "name": "Turbinenhalle"}}, {"type": "Feature", "geometry": {"type": "Point", "coordinates": [8.511279, 47.3765101]}, "properties": {"amenity": "restaurant", "name": "Z am Park"}}, {"type": "Feature", "geometry": {"type": "Point", "coordinates": [8.5374793, 47.409767]}, "properties": {"amenity": "restaurant", "name": "Gabbiano Pizza & Pasta"}}, {"type": "Feature", "geometry": {"type": "Point", "coordinates": [8.5399233, 47.3703727]}, "properties": {"amenity": "restaurant", "name": "Zeughauskeller"}}, {"type": "Feature", "geometry": {"type": "Point", "coordinates": [8.5392157, 47.3692939]}, "properties": {"amenity": "cafe", "name": "Spr\u00fcngli Caf\u00e9-Bar"}}, {"type": "Feature", "geometry": {"type": "Point", "coordinates": [8.5482469, 47.3849796]}, "properties": {"amenity": "restaurant", "name": "Zum Alten L\u00f6wen"}}, {"type": "Feature", "geometry": {"type": "Point", "coordinates": [8.5367495, 47.3733042]}, "properties": {"amenity": "restaurant", "name": "Haus Hiltl"}}, {"type": "Feature", "geometry": {"type": "Point", "coordinates": [8.4772959, 47.3845988]}, "properties": {"amenity": "cafe", "name": "Kafi \u00d6feli"}}, {"type": "Feature", "geometry": {"type": "Point", "coordinates": [8.5470198, 47.3794422]}, "properties": {"amenity": "restaurant", "name": "Ristorante Culmann"}}, {"type": "Feature", "geometry": {"type": "Point", "coordinates": [8.5469255, 47.3797201]}, "properties": {"amenity": "restaurant", "name": "La Fontana"}}, {"type": "Feature", "geometry": {"type": "Point", "coordinates": [8.5436425, 47.400103]}, "properties": {"amenity": "restaurant", "name": "Il Postino"}}, {"type": "Feature", "geometry": {"type": "Point", "coordinates": [8.4888858, 47.3910962]}, "properties": {"amenity": "restaurant", "name": "Peking Garden"}}, {"type": "Feature", "geometry": {"type": "Point", "coordinates": [8.4893752, 47.4292515]}, "properties": {"amenity": "restaurant", "name": "Waldhaus Katzensee"}}, {"type": "Feature", "geometry": {"type": "Point", "coordinates": [8.553472, 47.3734628]}, "properties": {"amenity": "restaurant", "name": "Oberhof"}}, {"type": "Feature", "geometry": {"type": "Point", "coordinates": [8.5283234, 47.3835914]}, "properties": {"amenity": "restaurant", "name": "Dar"}}, {"type": "Feature", "geometry": {"type": "Point", "coordinates": [8.5563885, 47.3697879]}, "properties": {"amenity": "restaurant", "name": "Rosengarten"}}, {"type": "Feature", "geometry": {"type": "Point", "coordinates": [8.559374, 47.3761503]}, "properties": {"amenity": "restaurant", "name": "Grain"}}, {"type": "Feature", "geometry": {"type": "Point", "coordinates": [8.5727756, 47.3995321]}, "properties": {"amenity": "restaurant", "name": "Wirtschaft Ziegelh\u00fctte"}}, {"type": "Feature", "geometry": {"type": "Point", "coordinates": [8.5141895, 47.376424]}, "properties": {"amenity": "fast_food", "name": "Pizza Casa"}}, {"type": "Feature", "geometry": {"type": "Point", "coordinates": [8.5130089, 47.3773106]}, "properties": {"amenity": "restaurant", "name": "pho 50"}}, {"type": "Feature", "geometry": {"type": "Point", "coordinates": [8.5147672, 47.3761581]}, "properties": {"amenity": "restaurant", "name": "Taverne da Angelo"}}, {"type": "Feature", "geometry": {"type": "Point", "coordinates": [8.5096105, 47.3783291]}, "properties": {"amenity": "cafe", "name": "Bauer"}}, {"type": "Feature", "geometry": {"type": "Point", "coordinates": [8.6166817, 47.3791543]}, "properties": {"amenity": "restaurant", "name": "Restaurant Waldmannsburg"}}, {"type": "Feature", "geometry": {"type": "Point", "coordinates": [8.6138054, 47.3968938]}, "properties": {"amenity": "restaurant", "name": "Pizzeria Il Faro"}}, {"type": "Feature", "geometry": {"type": "Point", "coordinates": [8.6056519, 47.4010079]}, "properties": {"amenity": "bar", "name": "Club P1"}}, {"type": "Feature", "geometry": {"type": "Point", "coordinates": [8.5330149, 47.4145066]}, "properties": {"amenity": "restaurant", "name": "Tasteria"}}, {"type": "Feature", "geometry": {"type": "Point", "coordinates": [8.539455, 47.4143917]}, "properties": {"amenity": "restaurant", "name": "Kai Sushi"}}, {"type": "Feature", "geometry": {"type": "Point", "coordinates": [8.5201156, 47.3639501]}, "properties": {"amenity": "restaurant", "name": "Ploy-Thai"}}, {"type": "Feature", "geometry": {"type": "Point", "coordinates": [8.5202242, 47.3635821]}, "properties": {"amenity": "fast_food", "name": "Dieci Pizzakurier"}}, {"type": "Feature", "geometry": {"type": "Point", "coordinates": [8.5403343, 47.3767165]}, "properties": {"amenity": "fast_food", "name": "McDonald's"}}, {"type": "Feature", "geometry": {"type": "Point", "coordinates": [8.5100698, 47.3697414]}, "properties": {"amenity": "restaurant", "name": "Shangrila Tibet"}}, {"type": "Feature", "geometry": {"type": "Point", "coordinates": [8.5191275, 47.3625799]}, "properties": {"amenity": "restaurant", "name": "Mezzo"}}, {"type": "Feature", "geometry": {"type": "Point", "coordinates": [8.5189172, 47.3623912]}, "properties": {"amenity": "cafe", "name": "Walter Buchmann"}}, {"type": "Feature", "geometry": {"type": "Point", "coordinates": [8.5204226, 47.3641859]}, "properties": {"amenity": "restaurant", "name": "Verona"}}, {"type": "Feature", "geometry": {"type": "Point", "coordinates": [8.5200023, 47.3651417]}, "properties": {"amenity": "restaurant", "name": "Hopfenau"}}, {"type": "Feature", "geometry": {"type": "Point", "coordinates": [8.5200355, 47.3673432]}, "properties": {"amenity": "restaurant", "name": "Jane Fine Food"}}, {"type": "Feature", "geometry": {"type": "Point", "coordinates": [8.5162289, 47.3592215]}, "properties": {"amenity": "restaurant", "name": "Swaad"}}, {"type": "Feature", "geometry": {"type": "Point", "coordinates": [8.549412, 47.3613874]}, "properties": {"amenity": "restaurant", "name": "Latino"}}, {"type": "Feature", "geometry": {"type": "Point", "coordinates": [8.5506873, 47.3618394]}, "properties": {"amenity": "restaurant", "name": "Ginger"}}, {"type": "Feature", "geometry": {"type": "Point", "coordinates": [8.551033, 47.3618934]}, "properties": {"amenity": "restaurant", "name": "Tiffins"}}, {"type": "Feature", "geometry": {"type": "Point", "coordinates": [8.5495281, 47.3630112]}, "properties": {"amenity": "restaurant", "name": "Asian Moon"}}, {"type": "Feature", "geometry": {"type": "Point", "coordinates": [8.5457188, 47.3675511]}, "properties": {"amenity": "restaurant", "name": "Kronenhalle"}}, {"type": "Feature", "geometry": {"type": "Point", "coordinates": [8.5443882, 47.3678872]}, "properties": {"amenity": "restaurant", "name": "Terrasse Restaurant"}}, {"type": "Feature", "geometry": {"type": "Point", "coordinates": [8.5451575, 47.3677915]}, "properties": {"amenity": "restaurant", "name": "Caf\u00e9/Bar Odeon"}}, {"type": "Feature", "geometry": {"type": "Point", "coordinates": [8.5458541, 47.3673843]}, "properties": {"amenity": "restaurant", "name": "Rosaly's"}}, {"type": "Feature", "geometry": {"type": "Point", "coordinates": [8.5462454, 47.3670484]}, "properties": {"amenity": "restaurant", "name": "Union Diner"}}, {"type": "Feature", "geometry": {"type": "Point", "coordinates": [8.546484, 47.3671867]}, "properties": {"amenity": "restaurant", "name": "Yooji's"}}, {"type": "Feature", "geometry": {"type": "Point", "coordinates": [8.5490837, 47.3659313]}, "properties": {"amenity": "restaurant", "name": "Commercio"}}, {"type": "Feature", "geometry": {"type": "Point", "coordinates": [8.5472235, 47.3641688]}, "properties": {"amenity": "restaurant", "name": "Quaglinos"}}, {"type": "Feature", "geometry": {"type": "Point", "coordinates": [8.5473846, 47.363996]}, "properties": {"amenity": "restaurant", "name": "Du Th\u00e9atre"}}, {"type": "Feature", "geometry": {"type": "Point", "coordinates": [8.5499916, 47.3606695]}, "properties": {"amenity": "restaurant", "name": "Amalfi"}}, {"type": "Feature", "geometry": {"type": "Point", "coordinates": [8.5494425, 47.3637174]}, "properties": {"amenity": "restaurant", "name": "Bimi"}}, {"type": "Feature", "geometry": {"type": "Point", "coordinates": [8.54855, 47.3646954]}, "properties": {"amenity": "restaurant", "name": "PurPur"}}, {"type": "Feature", "geometry": {"type": "Point", "coordinates": [8.5462955, 47.3637531]}, "properties": {"amenity": "restaurant", "name": "Restaurant Pumpstation"}}, {"type": "Feature", "geometry": {"type": "Point", "coordinates": [8.5548938, 47.364789]}, "properties": {"amenity": "restaurant", "name": "Bohemia"}}, {"type": "Feature", "geometry": {"type": "Point", "coordinates": [8.5545256, 47.3651655]}, "properties": {"amenity": "restaurant", "name": "Nooba"}}, {"type": "Feature", "geometry": {"type": "Point", "coordinates": [8.5541672, 47.3582879]}, "properties": {"amenity": "restaurant", "name": "Yooji's"}}, {"type": "Feature", "geometry": {"type": "Point", "coordinates": [8.5485169, 47.361841]}, "properties": {"amenity": "cafe", "name": "Cafe Black"}}, {"type": "Feature", "geometry": {"type": "Point", "coordinates": [8.5575836, 47.3575819]}, "properties": {"amenity": "restaurant", "name": "Gesundheitszentrum f\u00fcr das Alter Wildbach"}}, {"type": "Feature", "geometry": {"type": "Point", "coordinates": [8.5545618, 47.3627304]}, "properties": {"amenity": "restaurant", "name": "L\u00e4ndli"}}, {"type": "Feature", "geometry": {"type": "Point", "coordinates": [8.5467367, 47.3663196]}, "properties": {"amenity": "restaurant", "name": "Santa Lucia"}}, {"type": "Feature", "geometry": {"type": "Point", "coordinates": [8.5460635, 47.3649869]}, "properties": {"amenity": "restaurant", "name": "Bernadette"}}, {"type": "Feature", "geometry": {"type": "Point", "coordinates": [8.4826063, 47.4179171]}, "properties": {"amenity": "restaurant", "name": "Gr\u00fcnwald"}}, {"type": "Feature", "geometry": {"type": "Point", "coordinates": [8.4655444, 47.4297108]}, "properties": {"amenity": "cafe", "name": "Beck Keller"}}, {"type": "Feature", "geometry": {"type": "Point", "coordinates": [8.4654856, 47.4300419]}, "properties": {"amenity": "restaurant", "name": "Gasthof Hirschen"}}, {"type": "Feature", "geometry": {"type": "Point", "coordinates": [8.627177, 47.3895907]}, "properties": {"amenity": "restaurant", "name": "Restaurant D\u00fcbi Ice"}}, {"type": "Feature", "geometry": {"type": "Point", "coordinates": [8.6236618, 47.3999329]}, "properties": {"amenity": "fast_food", "name": "Bahnhof Kebap"}}, {"type": "Feature", "geometry": {"type": "Point", "coordinates": [8.5456652, 47.3682061]}, "properties": {"amenity": "restaurant", "name": "Weisse Rose"}}, {"type": "Feature", "geometry": {"type": "Point", "coordinates": [8.5500485, 47.3690028]}, "properties": {"amenity": "restaurant", "name": "Minine"}}, {"type": "Feature", "geometry": {"type": "Point", "coordinates": [8.5524861, 47.3597536]}, "properties": {"amenity": "restaurant", "name": "NA081"}}, {"type": "Feature", "geometry": {"type": "Point", "coordinates": [8.5405102, 47.3660377]}, "properties": {"amenity": "fast_food", "name": "Bistro & Grill am See"}}, {"type": "Feature", "geometry": {"type": "Point", "coordinates": [8.5675093, 47.3673483]}, "properties": {"amenity": "restaurant", "name": "Sonnenberg"}}, {"type": "Feature", "geometry": {"type": "Point", "coordinates": [8.5636573, 47.3654698]}, "properties": {"amenity": "restaurant", "name": "Aroma"}}, {"type": "Feature", "geometry": {"type": "Point", "coordinates": [8.5648541, 47.3652823]}, "properties": {"amenity": "bar", "name": "Sol"}}, {"type": "Feature", "geometry": {"type": "Point", "coordinates": [8.5606338, 47.364072]}, "properties": {"amenity": "cafe", "name": "Villa B\u00f6cklin"}}, {"type": "Feature", "geometry": {"type": "Point", "coordinates": [8.5594513, 47.3629817]}, "properties": {"amenity": "cafe", "name": "Alters- & Pflegewohnheim Neum\u00fcnster"}}, {"type": "Feature", "geometry": {"type": "Point", "coordinates": [8.5599915, 47.3632165]}, "properties": {"amenity": "restaurant", "name": "Restaurant Zauberberg"}}, {"type": "Feature", "geometry": {"type": "Point", "coordinates": [8.5587815, 47.3623472]}, "properties": {"amenity": "restaurant", "name": "Lin Lin"}}, {"type": "Feature", "geometry": {"type": "Point", "coordinates": [8.5603652, 47.3615601]}, "properties": {"amenity": "restaurant", "name": "ButchersTable"}}, {"type": "Feature", "geometry": {"type": "Point", "coordinates": [8.5611887, 47.3603204]}, "properties": {"amenity": "restaurant", "name": "Wynegg"}}, {"type": "Feature", "geometry": {"type": "Point", "coordinates": [8.5585046, 47.3596206]}, "properties": {"amenity": "restaurant", "name": "Neum\u00fcnster"}}, {"type": "Feature", "geometry": {"type": "Point", "coordinates": [8.5580482, 47.3519701]}, "properties": {"amenity": "restaurant", "name": "Strand-Restaurant Tiefenbrunnen"}}, {"type": "Feature", "geometry": {"type": "Point", "coordinates": [8.552204, 47.3703441]}, "properties": {"amenity": "restaurant", "name": "Wolfbach"}}, {"type": "Feature", "geometry": {"type": "Point", "coordinates": [8.5529812, 47.3697919]}, "properties": {"amenity": "restaurant", "name": "Afghan Anar"}}, {"type": "Feature", "geometry": {"type": "Point", "coordinates": [8.5540543, 47.3695588]}, "properties": {"amenity": "cafe", "name": "Caf\u00e9 Berner"}}, {"type": "Feature", "geometry": {"type": "Point", "coordinates": [8.5517729, 47.3639923]}, "properties": {"amenity": "cafe", "name": "M\u00fchlebach"}}, {"type": "Feature", "geometry": {"type": "Point", "coordinates": [8.5451811, 47.3681833]}, "properties": {"amenity": "restaurant", "name": "Blockhus"}}, {"type": "Feature", "geometry": {"type": "Point", "coordinates": [8.5452505, 47.3682148]}, "properties": {"amenity": "bar", "name": "Hotel Hechtplatz Bar"}}, {"type": "Feature", "geometry": {"type": "Point", "coordinates": [8.5455086, 47.3688249]}, "properties": {"amenity": "restaurant", "name": "Weisser Wind"}}, {"type": "Feature", "geometry": {"type": "Point", "coordinates": [8.545625, 47.3686693]}, "properties": {"amenity": "cafe", "name": "Oberdorf Beck"}}, {"type": "Feature", "geometry": {"type": "Point", "coordinates": [8.5445743, 47.3687595]}, "properties": {"amenity": "restaurant", "name": "Papa Joe's Z\u00fcrich"}}, {"type": "Feature", "geometry": {"type": "Point", "coordinates": [8.5439586, 47.3690472]}, "properties": {"amenity": "restaurant", "name": "Molino"}}, {"type": "Feature", "geometry": {"type": "Point", "coordinates": [8.5416945, 47.3700612]}, "properties": {"amenity": "restaurant", "name": "Zunfthaus zur Meisen"}}, {"type": "Feature", "geometry": {"type": "Point", "coordinates": [8.5479863, 47.3707349]}, "properties": {"amenity": "restaurant", "name": "Kunsthaus"}}, {"type": "Feature", "geometry": {"type": "Point", "coordinates": [8.5401242, 47.3701032]}, "properties": {"amenity": "restaurant", "name": "Orsini"}}, {"type": "Feature", "geometry": {"type": "Point", "coordinates": [8.5398264, 47.3700603]}, "properties": {"amenity": "restaurant", "name": "Santa Lucia"}}, {"type": "Feature", "geometry": {"type": "Point", "coordinates": [8.5401314, 47.3702715]}, "properties": {"amenity": "restaurant", "name": "Heug\u00fcmper"}}, {"type": "Feature", "geometry": {"type": "Point", "coordinates": [8.5403116, 47.3702401]}, "properties": {"amenity": "restaurant", "name": "Zunfthaus zur Waag"}}, {"type": "Feature", "geometry": {"type": "Point", "coordinates": [8.5403502, 47.3700185]}, "properties": {"amenity": "restaurant", "name": "M\u00fcnsterh\u00f6fli"}}, {"type": "Feature", "geometry": {"type": "Point", "coordinates": [8.5405687, 47.3693]}, "properties": {"amenity": "restaurant", "name": "Puro"}}, {"type": "Feature", "geometry": {"type": "Point", "coordinates": [8.5402339, 47.3689961]}, "properties": {"amenity": "restaurant", "name": "Milchbar"}}, {"type": "Feature", "geometry": {"type": "Point", "coordinates": [8.5477023, 47.3670788]}, "properties": {"amenity": "restaurant", "name": "Outback Lodge"}}, {"type": "Feature", "geometry": {"type": "Point", "coordinates": [8.547428, 47.3671507]}, "properties": {"amenity": "fast_food", "name": "Koko Chicken"}}, {"type": "Feature", "geometry": {"type": "Point", "coordinates": [8.5486513, 47.3661112]}, "properties": {"amenity": "restaurant", "name": "Weisses Kreuz"}}, {"type": "Feature", "geometry": {"type": "Point", "coordinates": [8.5478765, 47.3654324]}, "properties": {"amenity": "restaurant", "name": "Migros Restaurant"}}, {"type": "Feature", "geometry": {"type": "Point", "coordinates": [8.5741522, 47.3841997]}, "properties": {"amenity": "restaurant", "name": "Outpost"}}, {"type": "Feature", "geometry": {"type": "Point", "coordinates": [8.5751844, 47.3843967]}, "properties": {"amenity": "restaurant", "name": "Dieci Restaurant"}}, {"type": "Feature", "geometry": {"type": "Point", "coordinates": [8.5778661, 47.3515572]}, "properties": {"amenity": "cafe", "name": "Pflegezentrum Rehalp"}}, {"type": "Feature", "geometry": {"type": "Point", "coordinates": [8.5724184, 47.3578267]}, "properties": {"amenity": "restaurant", "name": "Burgwies"}}, {"type": "Feature", "geometry": {"type": "Point", "coordinates": [8.5707217, 47.3583262]}, "properties": {"amenity": "cafe", "name": "Cafeteria"}}, {"type": "Feature", "geometry": {"type": "Point", "coordinates": [8.5670716, 47.3604653]}, "properties": {"amenity": "restaurant", "name": "Wilder Mann"}}, {"type": "Feature", "geometry": {"type": "Point", "coordinates": [8.5665611, 47.3608497]}, "properties": {"amenity": "restaurant", "name": "Antiquaria da marco"}}, {"type": "Feature", "geometry": {"type": "Point", "coordinates": [8.5659833, 47.3608126]}, "properties": {"amenity": "cafe", "name": "Stiftung Perla Park"}}, {"type": "Feature", "geometry": {"type": "Point", "coordinates": [8.5655522, 47.3602234]}, "properties": {"amenity": "restaurant", "name": "Marcellino Pane e Vino"}}, {"type": "Feature", "geometry": {"type": "Point", "coordinates": [8.5648892, 47.360488]}, "properties": {"amenity": "fast_food", "name": "Spizzati"}}, {"type": "Feature", "geometry": {"type": "Point", "coordinates": [8.5545739, 47.3643316]}, "properties": {"amenity": "restaurant", "name": "Royal Panda"}}, {"type": "Feature", "geometry": {"type": "Point", "coordinates": [8.5417898, 47.373118]}, "properties": {"amenity": "restaurant", "name": "Restaurant Schipfe 16"}}, {"type": "Feature", "geometry": {"type": "Point", "coordinates": [8.5394674, 47.3743748]}, "properties": {"amenity": "restaurant", "name": "Brasserie Lipp"}}, {"type": "Feature", "geometry": {"type": "Point", "coordinates": [8.5397124, 47.3751744]}, "properties": {"amenity": "restaurant", "name": "Lotti"}}, {"type": "Feature", "geometry": {"type": "Point", "coordinates": [8.5392193, 47.3736638]}, "properties": {"amenity": "cafe", "name": "Starbucks"}}, {"type": "Feature", "geometry": {"type": "Point", "coordinates": [8.538956, 47.3736029]}, "properties": {"amenity": "cafe", "name": "Confiserie Honold"}}, {"type": "Feature", "geometry": {"type": "Point", "coordinates": [8.5470929, 47.3643407]}, "properties": {"amenity": "restaurant", "name": "Silk"}}, {"type": "Feature", "geometry": {"type": "Point", "coordinates": [8.5451486, 47.3670907]}, "properties": {"amenity": "cafe", "name": "Belcafe"}}, {"type": "Feature", "geometry": {"type": "Point", "coordinates": [8.5438241, 47.3728579]}, "properties": {"amenity": "fast_food", "name": "1001"}}, {"type": "Feature", "geometry": {"type": "Point", "coordinates": [8.550781, 47.3601706]}, "properties": {"amenity": "cafe", "name": "Valentino"}}, {"type": "Feature", "geometry": {"type": "Point", "coordinates": [8.5373768, 47.3676208]}, "properties": {"amenity": "restaurant", "name": "Trinity"}}, {"type": "Feature", "geometry": {"type": "Point", "coordinates": [8.5375522, 47.3675501]}, "properties": {"amenity": "bar", "name": "Oak Bar"}}, {"type": "Feature", "geometry": {"type": "Point", "coordinates": [8.5513602, 47.3615761]}, "properties": {"amenity": "bar", "name": "Bar Hotel Seefeld"}}, {"type": "Feature", "geometry": {"type": "Point", "coordinates": [8.5486637, 47.3650488]}, "properties": {"amenity": "restaurant", "name": "Cheti's Curry"}}, {"type": "Feature", "geometry": {"type": "Point", "coordinates": [8.5469837, 47.3661724]}, "properties": {"amenity": "cafe", "name": "Starbucks"}}, {"type": "Feature", "geometry": {"type": "Point", "coordinates": [8.5413414, 47.3761856]}, "properties": {"amenity": "restaurant", "name": "Dupont Brasserie & Bar"}}, {"type": "Feature", "geometry": {"type": "Point", "coordinates": [8.5402129, 47.3761821]}, "properties": {"amenity": "restaurant", "name": "Sala of Tokyo"}}, {"type": "Feature", "geometry": {"type": "Point", "coordinates": [8.5437442, 47.3722057]}, "properties": {"amenity": "restaurant", "name": "Santa Lucia"}}, {"type": "Feature", "geometry": {"type": "Point", "coordinates": [8.5388369, 47.3766974]}, "properties": {"amenity": "restaurant", "name": "Walliser Kanne"}}, {"type": "Feature", "geometry": {"type": "Point", "coordinates": [8.539384, 47.3763896]}, "properties": {"amenity": "cafe", "name": "Piazzetta"}}, {"type": "Feature", "geometry": {"type": "Point", "coordinates": [8.5384703, 47.3760414]}, "properties": {"amenity": "restaurant", "name": "SAM'S Pizza Land"}}, {"type": "Feature", "geometry": {"type": "Point", "coordinates": [8.5383251, 47.37605]}, "properties": {"amenity": "bar", "name": "Baryton"}}, {"type": "Feature", "geometry": {"type": "Point", "coordinates": [8.5375221, 47.3771005]}, "properties": {"amenity": "restaurant", "name": "Sch\u00fctzengasse"}}, {"type": "Feature", "geometry": {"type": "Point", "coordinates": [8.535549, 47.3743934]}, "properties": {"amenity": "restaurant", "name": "Astra"}}, {"type": "Feature", "geometry": {"type": "Point", "coordinates": [8.537357, 47.4097743]}, "properties": {"amenity": "restaurant", "name": "Pathila Snacks"}}, {"type": "Feature", "geometry": {"type": "Point", "coordinates": [8.5366859, 47.3729055]}, "properties": {"amenity": "restaurant", "name": "Glogge-Egge"}}, {"type": "Feature", "geometry": {"type": "Point", "coordinates": [8.5371777, 47.3722044]}, "properties": {"amenity": "restaurant", "name": "James Joyce"}}, {"type": "Feature", "geometry": {"type": "Point", "coordinates": [8.5379816, 47.3732035]}, "properties": {"amenity": "restaurant", "name": "Aurora"}}, {"type": "Feature", "geometry": {"type": "Point", "coordinates": [8.5447955, 47.3735998]}, "properties": {"amenity": "restaurant", "name": "Caf\u00e9 Z\u00e4hringer"}}, {"type": "Feature", "geometry": {"type": "Point", "coordinates": [8.5333948, 47.360198]}, "properties": {"amenity": "restaurant", "name": "Il Tartufo"}}, {"type": "Feature", "geometry": {"type": "Point", "coordinates": [8.5340786, 47.3600645]}, "properties": {"amenity": "restaurant", "name": "L'Altro"}}, {"type": "Feature", "geometry": {"type": "Point", "coordinates": [8.5318434, 47.3597047]}, "properties": {"amenity": "restaurant", "name": "Sternen Da Guido"}}, {"type": "Feature", "geometry": {"type": "Point", "coordinates": [8.5323081, 47.3635082]}, "properties": {"amenity": "restaurant", "name": "San Marco"}}, {"type": "Feature", "geometry": {"type": "Point", "coordinates": [8.5339001, 47.3635147]}, "properties": {"amenity": "restaurant", "name": "La Mimosa"}}, {"type": "Feature", "geometry": {"type": "Point", "coordinates": [8.533274, 47.3577263]}, "properties": {"amenity": "restaurant", "name": "Restaurant Belvoirpark"}}, {"type": "Feature", "geometry": {"type": "Point", "coordinates": [8.5406132, 47.450885]}, "properties": {"amenity": "fast_food", "name": "McDonald's"}}, {"type": "Feature", "geometry": {"type": "Point", "coordinates": [8.5796895, 47.4537385]}, "properties": {"amenity": "restaurant", "name": "LyLai Chinese Table"}}, {"type": "Feature", "geometry": {"type": "Point", "coordinates": [8.5367894, 47.365884]}, "properties": {"amenity": "bar", "name": "Barfly'z"}}, {"type": "Feature", "geometry": {"type": "Point", "coordinates": [8.5325611, 47.365841]}, "properties": {"amenity": "restaurant", "name": "Juan Costa \u00abOld Inn\u00bb"}}, {"type": "Feature", "geometry": {"type": "Point", "coordinates": [8.5321354, 47.3643619]}, "properties": {"amenity": "restaurant", "name": "Fujiya of Japan"}}, {"type": "Feature", "geometry": {"type": "Point", "coordinates": [8.5370495, 47.3617348]}, "properties": {"amenity": "bar", "name": "Seebad Enge"}}, {"type": "Feature", "geometry": {"type": "Point", "coordinates": [8.524726, 47.3741673]}, "properties": {"amenity": "bar", "name": "Plaza Bar"}}, {"type": "Feature", "geometry": {"type": "Point", "coordinates": [8.5244404, 47.3878614]}, "properties": {"amenity": "restaurant", "name": "Don Weber"}}, {"type": "Feature", "geometry": {"type": "Point", "coordinates": [8.5131772, 47.3938063]}, "properties": {"amenity": "restaurant", "name": "Quartier 5 Restaurant & Bar"}}, {"type": "Feature", "geometry": {"type": "Point", "coordinates": [8.5078042, 47.3936029]}, "properties": {"amenity": "restaurant", "name": "Cucina"}}, {"type": "Feature", "geometry": {"type": "Point", "coordinates": [8.5446241, 47.3735537]}, "properties": {"amenity": "bar", "name": "KWEER"}}, {"type": "Feature", "geometry": {"type": "Point", "coordinates": [8.5214527, 47.3742338]}, "properties": {"amenity": "fast_food", "name": "Oh My Greek"}}, {"type": "Feature", "geometry": {"type": "Point", "coordinates": [8.5282107, 47.3726835]}, "properties": {"amenity": "restaurant", "name": "Bubbles"}}, {"type": "Feature", "geometry": {"type": "Point", "coordinates": [8.5297366, 47.3734328]}, "properties": {"amenity": "fast_food", "name": "McDonald's"}}, {"type": "Feature", "geometry": {"type": "Point", "coordinates": [8.5278365, 47.3738206]}, "properties": {"amenity": "cafe", "name": "St. Jakob Beck"}}, {"type": "Feature", "geometry": {"type": "Point", "coordinates": [8.5362371, 47.3851137]}, "properties": {"amenity": "restaurant", "name": "Primitivo"}}, {"type": "Feature", "geometry": {"type": "Point", "coordinates": [8.5408921, 47.3972186]}, "properties": {"amenity": "restaurant", "name": "Restaurant Kreuzstrasse / Pizzeria Incrocio"}}, {"type": "Feature", "geometry": {"type": "Point", "coordinates": [8.5317713, 47.3647025]}, "properties": {"amenity": "cafe", "name": "Starbucks"}}, {"type": "Feature", "geometry": {"type": "Point", "coordinates": [8.5186448, 47.3878633]}, "properties": {"amenity": "restaurant", "name": "Les Halles"}}, {"type": "Feature", "geometry": {"type": "Point", "coordinates": [8.5179098, 47.3900555]}, "properties": {"amenity": "restaurant", "name": "Toscano im Puls 5"}}, {"type": "Feature", "geometry": {"type": "Point", "coordinates": [8.5187946, 47.3919262]}, "properties": {"amenity": "bar", "name": "sph\u00e8res"}}, {"type": "Feature", "geometry": {"type": "Point", "coordinates": [8.6275437, 47.4438776]}, "properties": {"amenity": "cafe", "name": "Storchen"}}, {"type": "Feature", "geometry": {"type": "Point", "coordinates": [8.6244188, 47.4448658]}, "properties": {"amenity": "restaurant", "name": "Barone"}}, {"type": "Feature", "geometry": {"type": "Point", "coordinates": [8.6287003, 47.4436205]}, "properties": {"amenity": "restaurant", "name": "L\u00f6wen"}}, {"type": "Feature", "geometry": {"type": "Point", "coordinates": [8.6272686, 47.4437737]}, "properties": {"amenity": "restaurant", "name": "Steakhouse 8303"}}, {"type": "Feature", "geometry": {"type": "Point", "coordinates": [8.6269211, 47.4438925]}, "properties": {"amenity": "fast_food", "name": "Bassis Imbiss"}}, {"type": "Feature", "geometry": {"type": "Point", "coordinates": [8.5403532, 47.4143333]}, "properties": {"amenity": "restaurant", "name": "Fusio"}}, {"type": "Feature", "geometry": {"type": "Point", "coordinates": [8.5154056, 47.3999623]}, "properties": {"amenity": "restaurant", "name": "Die Waid"}}, {"type": "Feature", "geometry": {"type": "Point", "coordinates": [8.5230197, 47.3861183]}, "properties": {"amenity": "fast_food", "name": "Kiosk Josefwiese"}}, {"type": "Feature", "geometry": {"type": "Point", "coordinates": [8.5269997, 47.3772976]}, "properties": {"amenity": "restaurant", "name": "Sonne"}}, {"type": "Feature", "geometry": {"type": "Point", "coordinates": [8.5480159, 47.4198706]}, "properties": {"amenity": "restaurant", "name": "Rebstock"}}, {"type": "Feature", "geometry": {"type": "Point", "coordinates": [8.5452509, 47.4140306]}, "properties": {"amenity": "fast_food", "name": "New Point"}}, {"type": "Feature", "geometry": {"type": "Point", "coordinates": [8.5484299, 47.4202502]}, "properties": {"amenity": "restaurant", "name": "D\u00f4ng Qu\u00ea"}}, {"type": "Feature", "geometry": {"type": "Point", "coordinates": [8.5493818, 47.4215396]}, "properties": {"amenity": "restaurant", "name": "Landhus"}}, {"type": "Feature", "geometry": {"type": "Point", "coordinates": [8.5469086, 47.4194842]}, "properties": {"amenity": "restaurant", "name": "Family Grill"}}, {"type": "Feature", "geometry": {"type": "Point", "coordinates": [8.5448251, 47.4107063]}, "properties": {"amenity": "restaurant", "name": "Mamma Mia"}}, {"type": "Feature", "geometry": {"type": "Point", "coordinates": [8.5464781, 47.4100617]}, "properties": {"amenity": "restaurant", "name": "Metzgerhalle"}}, {"type": "Feature", "geometry": {"type": "Point", "coordinates": [8.5464212, 47.4098258]}, "properties": {"amenity": "restaurant", "name": "Rolli's Steakhouse"}}, {"type": "Feature", "geometry": {"type": "Point", "coordinates": [8.5469906, 47.4109387]}, "properties": {"amenity": "restaurant", "name": "Bellucci"}}, {"type": "Feature", "geometry": {"type": "Point", "coordinates": [8.5243755, 47.3756685]}, "properties": {"amenity": "restaurant", "name": "Kobal"}}, {"type": "Feature", "geometry": {"type": "Point", "coordinates": [8.4955083, 47.3788109]}, "properties": {"amenity": "restaurant", "name": "Cube"}}, {"type": "Feature", "geometry": {"type": "Point", "coordinates": [8.4983437, 47.377552]}, "properties": {"amenity": "restaurant", "name": "Nikos"}}, {"type": "Feature", "geometry": {"type": "Point", "coordinates": [8.5262968, 47.3775516]}, "properties": {"amenity": "restaurant", "name": "Tenz Momo"}}, {"type": "Feature", "geometry": {"type": "Point", "coordinates": [8.5408969, 47.4148171]}, "properties": {"amenity": "restaurant", "name": "Jaime El Barco"}}, {"type": "Feature", "geometry": {"type": "Point", "coordinates": [8.5408549, 47.4143135]}, "properties": {"amenity": "restaurant", "name": "Kitchen & Bar by Courtyard"}}, {"type": "Feature", "geometry": {"type": "Point", "coordinates": [8.5462331, 47.4092055]}, "properties": {"amenity": "restaurant", "name": "Santa Lucia"}}, {"type": "Feature", "geometry": {"type": "Point", "coordinates": [8.5457062, 47.4099302]}, "properties": {"amenity": "restaurant", "name": "Cheyenne"}}, {"type": "Feature", "geometry": {"type": "Point", "coordinates": [8.4948742, 47.3792831]}, "properties": {"amenity": "restaurant", "name": "Il Salento"}}, {"type": "Feature", "geometry": {"type": "Point", "coordinates": [8.522301, 47.3761736]}, "properties": {"amenity": "restaurant", "name": "La Baracca"}}, {"type": "Feature", "geometry": {"type": "Point", "coordinates": [8.5222246, 47.3739825]}, "properties": {"amenity": "restaurant", "name": "Chicher\u00eda Cantina"}}, {"type": "Feature", "geometry": {"type": "Point", "coordinates": [8.5281814, 47.375039]}, "properties": {"amenity": "restaurant", "name": "Fribourger St\u00fcbli"}}, {"type": "Feature", "geometry": {"type": "Point", "coordinates": [8.5296036, 47.3825398]}, "properties": {"amenity": "restaurant", "name": "LILY'S"}}, {"type": "Feature", "geometry": {"type": "Point", "coordinates": [8.535493, 47.3819351]}, "properties": {"amenity": "fast_food", "name": "New Point"}}, {"type": "Feature", "geometry": {"type": "Point", "coordinates": [8.5164278, 47.3758295]}, "properties": {"amenity": "restaurant", "name": "FiveSpice"}}, {"type": "Feature", "geometry": {"type": "Point", "coordinates": [8.4960446, 47.401987]}, "properties": {"amenity": "fast_food", "name": "Kebab-Haus H\u00f6ngg"}}, {"type": "Feature", "geometry": {"type": "Point", "coordinates": [8.5323649, 47.3648644]}, "properties": {"amenity": "restaurant", "name": "Nooch Asian Kitchen"}}, {"type": "Feature", "geometry": {"type": "Point", "coordinates": [8.5244037, 47.3748589]}, "properties": {"amenity": "restaurant", "name": "Suan Long"}}, {"type": "Feature", "geometry": {"type": "Point", "coordinates": [8.5239732, 47.374422]}, "properties": {"amenity": "restaurant", "name": "Yuma"}}, {"type": "Feature", "geometry": {"type": "Point", "coordinates": [8.5232069, 47.3724091]}, "properties": {"amenity": "restaurant", "name": "Elisaburg"}}, {"type": "Feature", "geometry": {"type": "Point", "coordinates": [8.5264947, 47.3738833]}, "properties": {"amenity": "restaurant", "name": "Le Cedre"}}, {"type": "Feature", "geometry": {"type": "Point", "coordinates": [8.4926226, 47.3779936]}, "properties": {"amenity": "restaurant", "name": "Sarajevska \u0106evabd\u017einica"}}, {"type": "Feature", "geometry": {"type": "Point", "coordinates": [8.4669657, 47.4445302]}, "properties": {"amenity": "restaurant", "name": "Furtb\u00e4chli"}}, {"type": "Feature", "geometry": {"type": "Point", "coordinates": [8.5456297, 47.3725811]}, "properties": {"amenity": "bar", "name": "Neumarkt"}}, {"type": "Feature", "geometry": {"type": "Point", "coordinates": [8.5163348, 47.3761196]}, "properties": {"amenity": "restaurant", "name": "Derby"}}, {"type": "Feature", "geometry": {"type": "Point", "coordinates": [8.5162699, 47.376432]}, "properties": {"amenity": "restaurant", "name": "Rosi"}}, {"type": "Feature", "geometry": {"type": "Point", "coordinates": [8.5211491, 47.3778609]}, "properties": {"amenity": "restaurant", "name": "EquiTable"}}, {"type": "Feature", "geometry": {"type": "Point", "coordinates": [8.5178314, 47.375093]}, "properties": {"amenity": "restaurant", "name": "L'Artista"}}, {"type": "Feature", "geometry": {"type": "Point", "coordinates": [8.6222862, 47.4141814]}, "properties": {"amenity": "restaurant", "name": "The Butcher"}}, {"type": "Feature", "geometry": {"type": "Point", "coordinates": [8.5518595, 47.3748997]}, "properties": {"amenity": "fast_food", "name": "Bella Imbiss"}}, {"type": "Feature", "geometry": {"type": "Point", "coordinates": [8.5168115, 47.3745008]}, "properties": {"amenity": "restaurant", "name": "Santo Ristorante"}}, {"type": "Feature", "geometry": {"type": "Point", "coordinates": [8.5165887, 47.3752506]}, "properties": {"amenity": "restaurant", "name": "Miki Ramen"}}, {"type": "Feature", "geometry": {"type": "Point", "coordinates": [8.5289781, 47.3730187]}, "properties": {"amenity": "restaurant", "name": "Masala"}}, {"type": "Feature", "geometry": {"type": "Point", "coordinates": [8.5085756, 47.420226]}, "properties": {"amenity": "restaurant", "name": "Migros Restaurant"}}, {"type": "Feature", "geometry": {"type": "Point", "coordinates": [8.5085041, 47.4200404]}, "properties": {"amenity": "fast_food", "name": "New Point"}}, {"type": "Feature", "geometry": {"type": "Point", "coordinates": [8.531828, 47.3702232]}, "properties": {"amenity": "restaurant", "name": "Antica Roma"}}, {"type": "Feature", "geometry": {"type": "Point", "coordinates": [8.4774567, 47.4138889]}, "properties": {"amenity": "cafe", "name": "CaBaRe"}}, {"type": "Feature", "geometry": {"type": "Point", "coordinates": [8.5177655, 47.374375]}, "properties": {"amenity": "restaurant", "name": "Da Pepino"}}, {"type": "Feature", "geometry": {"type": "Point", "coordinates": [8.5244774, 47.3754357]}, "properties": {"amenity": "bar", "name": "Brick"}}, {"type": "Feature", "geometry": {"type": "Point", "coordinates": [8.5441952, 47.3765801]}, "properties": {"amenity": "cafe", "name": "Starbucks"}}, {"type": "Feature", "geometry": {"type": "Point", "coordinates": [8.5439506, 47.3745243]}, "properties": {"amenity": "fast_food", "name": "Dieci Take-Away"}}, {"type": "Feature", "geometry": {"type": "Point", "coordinates": [8.5441559, 47.3759081]}, "properties": {"amenity": "restaurant", "name": "Rheinfelder Bierhalle"}}, {"type": "Feature", "geometry": {"type": "Point", "coordinates": [8.5445846, 47.3697813]}, "properties": {"amenity": "restaurant", "name": "Karl der Grosse"}}, {"type": "Feature", "geometry": {"type": "Point", "coordinates": [8.4893633, 47.3993584]}, "properties": {"amenity": "restaurant", "name": "Restaurant Werdinsel"}}, {"type": "Feature", "geometry": {"type": "Point", "coordinates": [8.5327288, 47.3770714]}, "properties": {"amenity": "restaurant", "name": "Camino"}}, {"type": "Feature", "geometry": {"type": "Point", "coordinates": [8.5040594, 47.3807554]}, "properties": {"amenity": "restaurant", "name": "Ooki Pavillon"}}, {"type": "Feature", "geometry": {"type": "Point", "coordinates": [8.5340332, 47.3867368]}, "properties": {"amenity": "restaurant", "name": "Stazione Paradiso"}}, {"type": "Feature", "geometry": {"type": "Point", "coordinates": [8.5078663, 47.4082813]}, "properties": {"amenity": "cafe", "name": "Bistro"}}, {"type": "Feature", "geometry": {"type": "Point", "coordinates": [8.5096499, 47.4079092]}, "properties": {"amenity": "restaurant", "name": "SV Food Market Mensa"}}, {"type": "Feature", "geometry": {"type": "Point", "coordinates": [8.508553, 47.4103225]}, "properties": {"amenity": "fast_food", "name": "Rice Up!"}}, {"type": "Feature", "geometry": {"type": "Point", "coordinates": [8.5466398, 47.3759249]}, "properties": {"amenity": "cafe", "name": "bQm Kulturcaf\u00e9 & Bar"}}, {"type": "Feature", "geometry": {"type": "Point", "coordinates": [8.5465369, 47.3763026]}, "properties": {"amenity": "restaurant", "name": "SV Mensa Polyterrasse"}}, {"type": "Feature", "geometry": {"type": "Point", "coordinates": [8.5478673, 47.3773953]}, "properties": {"amenity": "cafe", "name": "Tannenbar"}}, {"type": "Feature", "geometry": {"type": "Point", "coordinates": [8.5470004, 47.3772558]}, "properties": {"amenity": "restaurant", "name": "Clausiusbar"}}, {"type": "Feature", "geometry": {"type": "Point", "coordinates": [8.548805, 47.378314]}, "properties": {"amenity": "restaurant", "name": "food&lab"}}, {"type": "Feature", "geometry": {"type": "Point", "coordinates": [8.5227559, 47.3886944]}, "properties": {"amenity": "cafe", "name": "Basilica"}}, {"type": "Feature", "geometry": {"type": "Point", "coordinates": [8.5320124, 47.3745749]}, "properties": {"amenity": "restaurant", "name": "Bernerhof"}}, {"type": "Feature", "geometry": {"type": "Point", "coordinates": [8.5292946, 47.3763729]}, "properties": {"amenity": "restaurant", "name": "Ristorante Italia"}}, {"type": "Feature", "geometry": {"type": "Point", "coordinates": [8.5402882, 47.3962653]}, "properties": {"amenity": "restaurant", "name": "Gonzalez"}}, {"type": "Feature", "geometry": {"type": "Point", "coordinates": [8.5426076, 47.3720795]}, "properties": {"amenity": "cafe", "name": "Rathaus-Caf\u00e9"}}, {"type": "Feature", "geometry": {"type": "Point", "coordinates": [8.5441431, 47.3757513]}, "properties": {"amenity": "restaurant", "name": "Johanniter"}}, {"type": "Feature", "geometry": {"type": "Point", "coordinates": [8.543866, 47.3758264]}, "properties": {"amenity": "restaurant", "name": "Bierhalle Wolf"}}, {"type": "Feature", "geometry": {"type": "Point", "coordinates": [8.540148, 47.3714506]}, "properties": {"amenity": "restaurant", "name": "Tao's"}}, {"type": "Feature", "geometry": {"type": "Point", "coordinates": [8.5402164, 47.3706516]}, "properties": {"amenity": "restaurant", "name": "Kropf"}}, {"type": "Feature", "geometry": {"type": "Point", "coordinates": [8.5406432, 47.3706846]}, "properties": {"amenity": "restaurant", "name": "Bindella"}}, {"type": "Feature", "geometry": {"type": "Point", "coordinates": [8.526169, 47.3773665]}, "properties": {"amenity": "restaurant", "name": "Aargauerhof"}}, {"type": "Feature", "geometry": {"type": "Point", "coordinates": [8.5355865, 47.3730817]}, "properties": {"amenity": "cafe", "name": "Caff\u00e9 Handelshof"}}, {"type": "Feature", "geometry": {"type": "Point", "coordinates": [8.5439082, 47.3721828]}, "properties": {"amenity": "restaurant", "name": "Zunfthaus zur Schmiden"}}, {"type": "Feature", "geometry": {"type": "Point", "coordinates": [8.5429593, 47.372316]}, "properties": {"amenity": "cafe", "name": "Gran Caf\u00e9 Motta"}}, {"type": "Feature", "geometry": {"type": "Point", "coordinates": [8.5455328, 47.3724275]}, "properties": {"amenity": "restaurant", "name": "Kantorei"}}, {"type": "Feature", "geometry": {"type": "Point", "coordinates": [8.5448295, 47.3731698]}, "properties": {"amenity": "restaurant", "name": "Iseb\u00e4hnli"}}, {"type": "Feature", "geometry": {"type": "Point", "coordinates": [8.5197706, 47.3875486]}, "properties": {"amenity": "fast_food", "name": "New Point"}}, {"type": "Feature", "geometry": {"type": "Point", "coordinates": [8.5196693, 47.3874455]}, "properties": {"amenity": "fast_food", "name": "Escher Wyss D\u00f6ner"}}, {"type": "Feature", "geometry": {"type": "Point", "coordinates": [8.5149777, 47.3748641]}, "properties": {"amenity": "restaurant", "name": "Bei Babette"}}, {"type": "Feature", "geometry": {"type": "Point", "coordinates": [8.5164116, 47.3753716]}, "properties": {"amenity": "fast_food", "name": "Ararat"}}, {"type": "Feature", "geometry": {"type": "Point", "coordinates": [8.5104366, 47.3723327]}, "properties": {"amenity": "restaurant", "name": "Schiwago"}}, {"type": "Feature", "geometry": {"type": "Point", "coordinates": [8.5099138, 47.3704984]}, "properties": {"amenity": "restaurant", "name": "Treffpunkt"}}, {"type": "Feature", "geometry": {"type": "Point", "coordinates": [8.5324944, 47.3730587]}, "properties": {"amenity": "fast_food", "name": "Subway"}}, {"type": "Feature", "geometry": {"type": "Point", "coordinates": [8.5258364, 47.3769125]}, "properties": {"amenity": "restaurant", "name": "Gotthard"}}, {"type": "Feature", "geometry": {"type": "Point", "coordinates": [8.5260052, 47.3771013]}, "properties": {"amenity": "bar", "name": "Acid"}}, {"type": "Feature", "geometry": {"type": "Point", "coordinates": [8.4668358, 47.4481798]}, "properties": {"amenity": "restaurant", "name": "Il Palazzetto"}}, {"type": "Feature", "geometry": {"type": "Point", "coordinates": [8.4619438, 47.4527123]}, "properties": {"amenity": "restaurant", "name": "Sole Mio"}}, {"type": "Feature", "geometry": {"type": "Point", "coordinates": [8.5164489, 47.3603774]}, "properties": {"amenity": "fast_food", "name": "La Penisola"}}, {"type": "Feature", "geometry": {"type": "Point", "coordinates": [8.5732007, 47.4317595]}, "properties": {"amenity": "restaurant", "name": "Frohsinn"}}, {"type": "Feature", "geometry": {"type": "Point", "coordinates": [8.5104099, 47.3616217]}, "properties": {"amenity": null, "name": null}}, {"type": "Feature", "geometry": {"type": "Point", "coordinates": [8.5107076, 47.3617872]}, "properties": {"amenity": null, "name": null}}, {"type": "Feature", "geometry": {"type": "Point", "coordinates": [8.5105372, 47.3619033]}, "properties": {"amenity": null, "name": null}}, {"type": "Feature", "geometry": {"type": "Point", "coordinates": [8.5165241, 47.3631172]}, "properties": {"amenity": null, "name": null}}, {"type": "Feature", "geometry": {"type": "Point", "coordinates": [8.4808135, 47.4427157]}, "properties": {"amenity": null, "name": null}}, {"type": "Feature", "geometry": {"type": "Point", "coordinates": [8.4810562, 47.4427527]}, "properties": {"amenity": null, "name": null}}, {"type": "Feature", "geometry": {"type": "Point", "coordinates": [8.4809534, 47.442651]}, "properties": {"amenity": null, "name": null}}, {"type": "Feature", "geometry": {"type": "Point", "coordinates": [8.4807172, 47.4429008]}, "properties": {"amenity": null, "name": null}}, {"type": "Feature", "geometry": {"type": "Point", "coordinates": [8.4805884, 47.442771]}, "properties": {"amenity": null, "name": null}}, {"type": "Feature", "geometry": {"type": "Point", "coordinates": [8.6305457, 47.3757528]}, "properties": {"amenity": "restaurant", "name": "Bababobo"}}, {"type": "Feature", "geometry": {"type": "Point", "coordinates": [8.5280453, 47.3728883]}, "properties": {"amenity": "fast_food", "name": "Oli's Kitchen"}}, {"type": "Feature", "geometry": {"type": "Point", "coordinates": [8.5277578, 47.3726372]}, "properties": {"amenity": "fast_food", "name": "Charlie's Take Away"}}, {"type": "Feature", "geometry": {"type": "Point", "coordinates": [8.5273865, 47.3726012]}, "properties": {"amenity": "restaurant", "name": "Yu-An"}}, {"type": "Feature", "geometry": {"type": "Point", "coordinates": [8.5289743, 47.372245]}, "properties": {"amenity": "restaurant", "name": "Ristorante Bar Certo"}}, {"type": "Feature", "geometry": {"type": "Point", "coordinates": [8.5237696, 47.3732235]}, "properties": {"amenity": "restaurant", "name": "K\u00f6chlistube"}}, {"type": "Feature", "geometry": {"type": "Point", "coordinates": [8.5433384, 47.3679479]}, "properties": {"amenity": null, "name": null}}, {"type": "Feature", "geometry": {"type": "Point", "coordinates": [8.5436111, 47.3680108]}, "properties": {"amenity": null, "name": null}}, {"type": "Feature", "geometry": {"type": "Point", "coordinates": [8.5364943, 47.3717506]}, "properties": {"amenity": "bar", "name": "Pelikanbar"}}, {"type": "Feature", "geometry": {"type": "Point", "coordinates": [8.5363568, 47.3716325]}, "properties": {"amenity": "restaurant", "name": "Kaufleuten Restaurant"}}, {"type": "Feature", "geometry": {"type": "Point", "coordinates": [8.5338089, 47.381874]}, "properties": {"amenity": "restaurant", "name": "Uncle 7"}}, {"type": "Feature", "geometry": {"type": "Point", "coordinates": [8.5336329, 47.3819982]}, "properties": {"amenity": "restaurant", "name": "Vulkan"}}, {"type": "Feature", "geometry": {"type": "Point", "coordinates": [8.524811, 47.4482448]}, "properties": {"amenity": "restaurant", "name": "Tr\u00f6pfli"}}, {"type": "Feature", "geometry": {"type": "Point", "coordinates": [8.5448481, 47.4300978]}, "properties": {"amenity": "cafe", "name": "Espresso Bar"}}, {"type": "Feature", "geometry": {"type": "Point", "coordinates": [8.5349263, 47.3751438]}, "properties": {"amenity": "bar", "name": "Stall 6"}}, {"type": "Feature", "geometry": {"type": "Point", "coordinates": [8.5336734, 47.3744071]}, "properties": {"amenity": "bar", "name": "El Lokal"}}, {"type": "Feature", "geometry": {"type": "Point", "coordinates": [8.52612, 47.3768022]}, "properties": {"amenity": "bar", "name": "Kir Royal"}}, {"type": "Feature", "geometry": {"type": "Point", "coordinates": [8.5244364, 47.3777467]}, "properties": {"amenity": "restaurant", "name": "Restaurant B"}}, {"type": "Feature", "geometry": {"type": "Point", "coordinates": [8.5163363, 47.3713351]}, "properties": {"amenity": "cafe", "name": "Pl\u00fcsch"}}, {"type": "Feature", "geometry": {"type": "Point", "coordinates": [8.5108387, 47.3840928]}, "properties": {"amenity": "restaurant", "name": "Eglihof"}}, {"type": "Feature", "geometry": {"type": "Point", "coordinates": [8.5084472, 47.3848593]}, "properties": {"amenity": "restaurant", "name": "Santa Lucia Subito"}}, {"type": "Feature", "geometry": {"type": "Point", "coordinates": [8.5414596, 47.3865398]}, "properties": {"amenity": "restaurant", "name": "Pizzeria Corallo"}}, {"type": "Feature", "geometry": {"type": "Point", "coordinates": [8.5452851, 47.3861132]}, "properties": {"amenity": "restaurant", "name": "Kreis 6"}}, {"type": "Feature", "geometry": {"type": "Point", "coordinates": [8.5396636, 47.3830272]}, "properties": {"amenity": "restaurant", "name": "Chuchi am Wasser"}}, {"type": "Feature", "geometry": {"type": "Point", "coordinates": [8.5444684, 47.3789264]}, "properties": {"amenity": "restaurant", "name": "Pizza Pasta Ciao"}}, {"type": "Feature", "geometry": {"type": "Point", "coordinates": [8.5251723, 47.4242466]}, "properties": {"amenity": "restaurant", "name": "Restaurant Waidhof"}}, {"type": "Feature", "geometry": {"type": "Point", "coordinates": [8.5457722, 47.3715334]}, "properties": {"amenity": "restaurant", "name": "zum Gr\u00fcnen Glas"}}, {"type": "Feature", "geometry": {"type": "Point", "coordinates": [8.5438402, 47.37272]}, "properties": {"amenity": "restaurant", "name": "Piadina Bar"}}, {"type": "Feature", "geometry": {"type": "Point", "coordinates": [8.5432024, 47.3708573]}, "properties": {"amenity": "restaurant", "name": "Haus zum R\u00fcden"}}, {"type": "Feature", "geometry": {"type": "Point", "coordinates": [8.543806, 47.3708655]}, "properties": {"amenity": "restaurant", "name": "M\u00e8re Catherine"}}, {"type": "Feature", "geometry": {"type": "Point", "coordinates": [8.5605979, 47.3683702]}, "properties": {"amenity": "cafe", "name": "Le Pain Quotidien"}}, {"type": "Feature", "geometry": {"type": "Point", "coordinates": [8.524329, 47.3710439]}, "properties": {"amenity": "restaurant", "name": "Arcade Pizzeria"}}, {"type": "Feature", "geometry": {"type": "Point", "coordinates": [8.5441261, 47.3764199]}, "properties": {"amenity": "restaurant", "name": "Weinstube 1923"}}, {"type": "Feature", "geometry": {"type": "Point", "coordinates": [8.5440373, 47.3763302]}, "properties": {"amenity": "cafe", "name": "Schurter"}}, {"type": "Feature", "geometry": {"type": "Point", "coordinates": [8.5441095, 47.3760133]}, "properties": {"amenity": "restaurant", "name": "La Pasta"}}, {"type": "Feature", "geometry": {"type": "Point", "coordinates": [8.5440933, 47.3760644]}, "properties": {"amenity": "fast_food", "name": "Chopstick express"}}, {"type": "Feature", "geometry": {"type": "Point", "coordinates": [8.5439456, 47.3759873]}, "properties": {"amenity": "fast_food", "name": "Central Geylan Kebap Haus"}}, {"type": "Feature", "geometry": {"type": "Point", "coordinates": [8.5441268, 47.375826]}, "properties": {"amenity": "restaurant", "name": "Da Raffaele"}}, {"type": "Feature", "geometry": {"type": "Point", "coordinates": [8.5441177, 47.3756656]}, "properties": {"amenity": "restaurant", "name": "N-68"}}, {"type": "Feature", "geometry": {"type": "Point", "coordinates": [8.5440085, 47.3754161]}, "properties": {"amenity": "restaurant", "name": "Rank"}}, {"type": "Feature", "geometry": {"type": "Point", "coordinates": [8.5439974, 47.3753537]}, "properties": {"amenity": "restaurant", "name": "Rank"}}, {"type": "Feature", "geometry": {"type": "Point", "coordinates": [8.5438222, 47.3753239]}, "properties": {"amenity": "fast_food", "name": "1001 Take Away"}}, {"type": "Feature", "geometry": {"type": "Point", "coordinates": [8.5437335, 47.3748977]}, "properties": {"amenity": "restaurant", "name": "Tasca Romero"}}, {"type": "Feature", "geometry": {"type": "Point", "coordinates": [8.5437374, 47.3746589]}, "properties": {"amenity": "restaurant", "name": "Osteria Borgo"}}, {"type": "Feature", "geometry": {"type": "Point", "coordinates": [8.5434685, 47.3739626]}, "properties": {"amenity": "fast_food", "name": "Long Wai"}}, {"type": "Feature", "geometry": {"type": "Point", "coordinates": [8.5436412, 47.3736974]}, "properties": {"amenity": "restaurant", "name": "Steakhouse Old Town"}}, {"type": "Feature", "geometry": {"type": "Point", "coordinates": [8.5436348, 47.3734874]}, "properties": {"amenity": "restaurant", "name": "Vallocaia"}}, {"type": "Feature", "geometry": {"type": "Point", "coordinates": [8.5438598, 47.3730001]}, "properties": {"amenity": "restaurant", "name": "Brasserie Louis"}}, {"type": "Feature", "geometry": {"type": "Point", "coordinates": [8.543858, 47.372907]}, "properties": {"amenity": "fast_food", "name": "Louis Take Away"}}, {"type": "Feature", "geometry": {"type": "Point", "coordinates": [8.5436598, 47.3729061]}, "properties": {"amenity": "restaurant", "name": "Spaghetti Factory"}}, {"type": "Feature", "geometry": {"type": "Point", "coordinates": [8.5436586, 47.3729877]}, "properties": {"amenity": "restaurant", "name": "Trattoria Sempre"}}, {"type": "Feature", "geometry": {"type": "Point", "coordinates": [8.5439299, 47.3723807]}, "properties": {"amenity": "restaurant", "name": "Raclette Factory"}}, {"type": "Feature", "geometry": {"type": "Point", "coordinates": [8.5437352, 47.3721304]}, "properties": {"amenity": "restaurant", "name": "Rheinfelder Bierhaus"}}, {"type": "Feature", "geometry": {"type": "Point", "coordinates": [8.5436362, 47.3718184]}, "properties": {"amenity": "fast_food", "name": "saftlade.ch"}}, {"type": "Feature", "geometry": {"type": "Point", "coordinates": [8.5443699, 47.3714893]}, "properties": {"amenity": "cafe", "name": "Caf\u00e9 & Conditorei 1842"}}, {"type": "Feature", "geometry": {"type": "Point", "coordinates": [8.5446469, 47.371352]}, "properties": {"amenity": "restaurant", "name": "Restaurant Schlauch"}}, {"type": "Feature", "geometry": {"type": "Point", "coordinates": [8.5443044, 47.3712636]}, "properties": {"amenity": "cafe", "name": "Andorra"}}, {"type": "Feature", "geometry": {"type": "Point", "coordinates": [8.5441611, 47.3712211]}, "properties": {"amenity": "restaurant", "name": "Bodega Espa\u00f1ola"}}, {"type": "Feature", "geometry": {"type": "Point", "coordinates": [8.5473401, 47.4190936]}, "properties": {"amenity": "restaurant", "name": "Nationalhof"}}, {"type": "Feature", "geometry": {"type": "Point", "coordinates": [8.5439267, 47.4195084]}, "properties": {"amenity": "restaurant", "name": "Blue Pizza Sunneberg"}}, {"type": "Feature", "geometry": {"type": "Point", "coordinates": [8.4070008, 47.4361151]}, "properties": {"amenity": "restaurant", "name": "Waldschenke Altberg"}}, {"type": "Feature", "geometry": {"type": "Point", "coordinates": [8.4396798, 47.4084665]}, "properties": {"amenity": "restaurant", "name": "Restaurant zu den zwei Raben"}}, {"type": "Feature", "geometry": {"type": "Point", "coordinates": [8.5229939, 47.358483]}, "properties": {"amenity": "restaurant", "name": "Vapiano"}}, {"type": "Feature", "geometry": {"type": "Point", "coordinates": [8.5233652, 47.3585224]}, "properties": {"amenity": "restaurant", "name": "Hong-Kong Food Paradise"}}, {"type": "Feature", "geometry": {"type": "Point", "coordinates": [8.5228082, 47.3580035]}, "properties": {"amenity": "fast_food", "name": "McDonald's"}}, {"type": "Feature", "geometry": {"type": "Point", "coordinates": [8.5696289, 47.4532398]}, "properties": {"amenity": "fast_food", "name": "Fracht-Grill"}}, {"type": "Feature", "geometry": {"type": "Point", "coordinates": [8.5191166, 47.3886695]}, "properties": {"amenity": "restaurant", "name": "LaSalle"}}, {"type": "Feature", "geometry": {"type": "Point", "coordinates": [8.5036259, 47.4004328]}, "properties": {"amenity": "fast_food", "name": "Del Sole Pizzakurier"}}, {"type": "Feature", "geometry": {"type": "Point", "coordinates": [8.5065553, 47.3786937]}, "properties": {"amenity": "restaurant", "name": "Paprika"}}, {"type": "Feature", "geometry": {"type": "Point", "coordinates": [8.5257086, 47.380803]}, "properties": {"amenity": "cafe", "name": "Piccolo Giardino"}}, {"type": "Feature", "geometry": {"type": "Point", "coordinates": [8.5359972, 47.3912249]}, "properties": {"amenity": "cafe", "name": "Kafischnaps"}}, {"type": "Feature", "geometry": {"type": "Point", "coordinates": [8.5464126, 47.4085258]}, "properties": {"amenity": "restaurant", "name": "Sternen"}}, {"type": "Feature", "geometry": {"type": "Point", "coordinates": [8.5233527, 47.3708935]}, "properties": {"amenity": "restaurant", "name": "Restaurant Bahnhof Wiedikon"}}, {"type": "Feature", "geometry": {"type": "Point", "coordinates": [8.6075448, 47.3956584]}, "properties": {"amenity": "restaurant", "name": "Da Carlo"}}, {"type": "Feature", "geometry": {"type": "Point", "coordinates": [8.6286055, 47.3562321]}, "properties": {"amenity": "restaurant", "name": "zur Trotte"}}, {"type": "Feature", "geometry": {"type": "Point", "coordinates": [8.5526404, 47.402393]}, "properties": {"amenity": "fast_food", "name": "La Fammy"}}, {"type": "Feature", "geometry": {"type": "Point", "coordinates": [8.5258322, 47.3953385]}, "properties": {"amenity": "bar", "name": "L\u00f6wen"}}, {"type": "Feature", "geometry": {"type": "Point", "coordinates": [8.550392, 47.4215832]}, "properties": {"amenity": "bar", "name": "Kervan Shisha Bar"}}, {"type": "Feature", "geometry": {"type": "Point", "coordinates": [8.5587045, 47.4238766]}, "properties": {"amenity": "restaurant", "name": "Al Dente"}}, {"type": "Feature", "geometry": {"type": "Point", "coordinates": [8.506734, 47.4082566]}, "properties": {"amenity": "cafe", "name": "Alumni Lounge"}}, {"type": "Feature", "geometry": {"type": "Point", "coordinates": [8.5078578, 47.4077482]}, "properties": {"amenity": "restaurant", "name": "Fusion meal & coffee"}}, {"type": "Feature", "geometry": {"type": "Point", "coordinates": [8.5410497, 47.4119577]}, "properties": {"amenity": "fast_food", "name": "not guilty"}}, {"type": "Feature", "geometry": {"type": "Point", "coordinates": [8.4118449, 47.3996421]}, "properties": {"amenity": "restaurant", "name": "Dudu"}}, {"type": "Feature", "geometry": {"type": "Point", "coordinates": [8.5297423, 47.3893649]}, "properties": {"amenity": "cafe", "name": "Bar & Kiosk Flussbad Unterer Letten"}}, {"type": "Feature", "geometry": {"type": "Point", "coordinates": [8.4997624, 47.4230913]}, "properties": {"amenity": "cafe", "name": "Caf\u00e9 Ofenhalle"}}, {"type": "Feature", "geometry": {"type": "Point", "coordinates": [8.5477565, 47.3662927]}, "properties": {"amenity": "cafe", "name": "Bistro Park Stadelhofen"}}, {"type": "Feature", "geometry": {"type": "Point", "coordinates": [8.4374301, 47.4474685]}, "properties": {"amenity": "fast_food", "name": null}}, {"type": "Feature", "geometry": {"type": "Point", "coordinates": [8.438917, 47.4495734]}, "properties": {"amenity": "fast_food", "name": "Yacoub Imbiss"}}, {"type": "Feature", "geometry": {"type": "Point", "coordinates": [8.4405927, 47.4398782]}, "properties": {"amenity": "restaurant", "name": "Zur Au"}}, {"type": "Feature", "geometry": {"type": "Point", "coordinates": [8.5317241, 47.3821979]}, "properties": {"amenity": "restaurant", "name": "LA Brea SoCal Tacos"}}, {"type": "Feature", "geometry": {"type": "Point", "coordinates": [8.5312467, 47.382624]}, "properties": {"amenity": "restaurant", "name": "Spicy Box"}}, {"type": "Feature", "geometry": {"type": "Point", "coordinates": [8.5366968, 47.3588213]}, "properties": {"amenity": null, "name": null}}, {"type": "Feature", "geometry": {"type": "Point", "coordinates": [8.5371193, 47.3587129]}, "properties": {"amenity": null, "name": null}}, {"type": "Feature", "geometry": {"type": "Point", "coordinates": [8.5372144, 47.3588797]}, "properties": {"amenity": null, "name": null}}, {"type": "Feature", "geometry": {"type": "Point", "coordinates": [8.5367926, 47.3589926]}, "properties": {"amenity": null, "name": null}}, {"type": "Feature", "geometry": {"type": "Point", "coordinates": [8.5422233, 47.3678728]}, "properties": {"amenity": null, "name": null}}, {"type": "Feature", "geometry": {"type": "Point", "coordinates": [8.5425505, 47.3679074]}, "properties": {"amenity": null, "name": null}}, {"type": "Feature", "geometry": {"type": "Point", "coordinates": [8.5425637, 47.3678498]}, "properties": {"amenity": null, "name": null}}, {"type": "Feature", "geometry": {"type": "Point", "coordinates": [8.5422365, 47.3678152]}, "properties": {"amenity": null, "name": null}}, {"type": "Feature", "geometry": {"type": "Point", "coordinates": [8.5436459, 47.3679415]}, "properties": {"amenity": null, "name": null}}, {"type": "Feature", "geometry": {"type": "Point", "coordinates": [8.5433733, 47.3678786]}, "properties": {"amenity": null, "name": null}}, {"type": "Feature", "geometry": {"type": "Point", "coordinates": [8.5435261, 47.3679156]}, "properties": {"amenity": null, "name": null}}, {"type": "Feature", "geometry": {"type": "Point", "coordinates": [8.5449046, 47.3734574]}, "properties": {"amenity": "restaurant", "name": "Coraz\u00f3n"}}, {"type": "Feature", "geometry": {"type": "Point", "coordinates": [8.5213785, 47.3887272]}, "properties": {"amenity": "restaurant", "name": "Nooch Asian Kitchen"}}, {"type": "Feature", "geometry": {"type": "Point", "coordinates": [8.5211173, 47.3884825]}, "properties": {"amenity": "restaurant", "name": "Brauerei Steinfels"}}, {"type": "Feature", "geometry": {"type": "Point", "coordinates": [8.5278368, 47.3844648]}, "properties": {"amenity": "restaurant", "name": "Tibetasia"}}, {"type": "Feature", "geometry": {"type": "Point", "coordinates": [8.5432363, 47.4107127]}, "properties": {"amenity": "fast_food", "name": "McDonald's"}}, {"type": "Feature", "geometry": {"type": "Point", "coordinates": [8.5225902, 47.3581573]}, "properties": {"amenity": "restaurant", "name": "R\u00fcsterei Grill"}}, {"type": "Feature", "geometry": {"type": "Point", "coordinates": [8.5299899, 47.3870499]}, "properties": {"amenity": "cafe", "name": "Bistro Limmat"}}, {"type": "Feature", "geometry": {"type": "Point", "coordinates": [8.5275777, 47.384599]}, "properties": {"amenity": "restaurant", "name": "Damas"}}, {"type": "Feature", "geometry": {"type": "Point", "coordinates": [8.5270244, 47.3720798]}, "properties": {"amenity": "restaurant", "name": "Werd"}}, {"type": "Feature", "geometry": {"type": "Point", "coordinates": [8.5261099, 47.3731595]}, "properties": {"amenity": "restaurant", "name": "Paneolio"}}, {"type": "Feature", "geometry": {"type": "Point", "coordinates": [8.5327533, 47.3729919]}, "properties": {"amenity": "restaurant", "name": "Saigon"}}, {"type": "Feature", "geometry": {"type": "Point", "coordinates": [8.5287302, 47.3836276]}, "properties": {"amenity": "restaurant", "name": "Eisenhof"}}, {"type": "Feature", "geometry": {"type": "Point", "coordinates": [8.544578, 47.3674528]}, "properties": {"amenity": "cafe", "name": "Felix"}}, {"type": "Feature", "geometry": {"type": "Point", "coordinates": [8.504715, 47.3627527]}, "properties": {"amenity": null, "name": null}}, {"type": "Feature", "geometry": {"type": "Point", "coordinates": [8.5046237, 47.3627074]}, "properties": {"amenity": null, "name": null}}, {"type": "Feature", "geometry": {"type": "Point", "coordinates": [8.5338456, 47.3761362]}, "properties": {"amenity": "restaurant", "name": "Cucina"}}, {"type": "Feature", "geometry": {"type": "Point", "coordinates": [8.4847702, 47.3885734]}, "properties": {"amenity": "restaurant", "name": "Roter Stein"}}, {"type": "Feature", "geometry": {"type": "Point", "coordinates": [8.5294371, 47.39337]}, "properties": {"amenity": "restaurant", "name": "Nordbr\u00fccke"}}, {"type": "Feature", "geometry": {"type": "Point", "coordinates": [8.5296761, 47.3935843]}, "properties": {"amenity": "restaurant", "name": "The Artisan"}}, {"type": "Feature", "geometry": {"type": "Point", "coordinates": [8.520783, 47.3645425]}, "properties": {"amenity": "restaurant", "name": "Chez Nhan"}}, {"type": "Feature", "geometry": {"type": "Point", "coordinates": [8.5179538, 47.3606785]}, "properties": {"amenity": "restaurant", "name": "Vietnam"}}, {"type": "Feature", "geometry": {"type": "Point", "coordinates": [8.5180157, 47.3616035]}, "properties": {"amenity": "restaurant", "name": "Utoburg"}}, {"type": "Feature", "geometry": {"type": "Point", "coordinates": [8.5355605, 47.402817]}, "properties": {"amenity": "restaurant", "name": "Fallender Brunnenhof"}}, {"type": "Feature", "geometry": {"type": "Point", "coordinates": [8.4829214, 47.3780992]}, "properties": {"amenity": "restaurant", "name": "Pizzeria Untermoos"}}, {"type": "Feature", "geometry": {"type": "Point", "coordinates": [8.4841815, 47.3750359]}, "properties": {"amenity": "restaurant", "name": "Zum Weissen R\u00f6ssli"}}, {"type": "Feature", "geometry": {"type": "Point", "coordinates": [8.5401427, 47.414347]}, "properties": {"amenity": "cafe", "name": "Caf\u00e9 Max-Bill"}}, {"type": "Feature", "geometry": {"type": "Point", "coordinates": [8.5387892, 47.4135291]}, "properties": {"amenity": "restaurant", "name": "Hong-Kong Food Paradise"}}, {"type": "Feature", "geometry": {"type": "Point", "coordinates": [8.5524597, 47.3605504]}, "properties": {"amenity": "restaurant", "name": "Escoffier"}}, {"type": "Feature", "geometry": {"type": "Point", "coordinates": [8.5521363, 47.3602524]}, "properties": {"amenity": "restaurant", "name": "Stripped Pizza"}}, {"type": "Feature", "geometry": {"type": "Point", "coordinates": [8.5311096, 47.3938594]}, "properties": {"amenity": "restaurant", "name": "New Avataar"}}, {"type": "Feature", "geometry": {"type": "Point", "coordinates": [8.5944021, 47.4085582]}, "properties": {"amenity": "fast_food", "name": "McDonald's"}}, {"type": "Feature", "geometry": {"type": "Point", "coordinates": [8.5953513, 47.4085621]}, "properties": {"amenity": "restaurant", "name": "Spiga"}}, {"type": "Feature", "geometry": {"type": "Point", "coordinates": [8.519818, 47.372707]}, "properties": {"amenity": "restaurant", "name": "Zum Guten Gl\u00fcck"}}, {"type": "Feature", "geometry": {"type": "Point", "coordinates": [8.5476202, 47.3664563]}, "properties": {"amenity": "fast_food", "name": "McDonald's"}}, {"type": "Feature", "geometry": {"type": "Point", "coordinates": [8.5229952, 47.3772107]}, "properties": {"amenity": "cafe", "name": "Kafi f\u00fcr Dich"}}, {"type": "Feature", "geometry": {"type": "Point", "coordinates": [8.4838926, 47.3822104]}, "properties": {"amenity": "restaurant", "name": "Restaurant Sonne Libanon"}}, {"type": "Feature", "geometry": {"type": "Point", "coordinates": [8.5160184, 47.3779179]}, "properties": {"amenity": "restaurant", "name": "Caf\u00e9 Boy"}}, {"type": "Feature", "geometry": {"type": "Point", "coordinates": [8.539683, 47.3857427]}, "properties": {"amenity": "fast_food", "name": "The Lemon Grass"}}, {"type": "Feature", "geometry": {"type": "Point", "coordinates": [8.5450649, 47.4090339]}, "properties": {"amenity": "fast_food", "name": "Silberkugel"}}, {"type": "Feature", "geometry": {"type": "Point", "coordinates": [8.5157305, 47.4032484]}, "properties": {"amenity": null, "name": null}}, {"type": "Feature", "geometry": {"type": "Point", "coordinates": [8.5161984, 47.4031469]}, "properties": {"amenity": null, "name": null}}, {"type": "Feature", "geometry": {"type": "Point", "coordinates": [8.5160485, 47.4032446]}, "properties": {"amenity": null, "name": null}}, {"type": "Feature", "geometry": {"type": "Point", "coordinates": [8.5159135, 47.4031658]}, "properties": {"amenity": null, "name": null}}, {"type": "Feature", "geometry": {"type": "Point", "coordinates": [8.5161686, 47.403522]}, "properties": {"amenity": null, "name": null}}, {"type": "Feature", "geometry": {"type": "Point", "coordinates": [8.5162392, 47.4034691]}, "properties": {"amenity": null, "name": null}}, {"type": "Feature", "geometry": {"type": "Point", "coordinates": [8.5160794, 47.4033625]}, "properties": {"amenity": null, "name": null}}, {"type": "Feature", "geometry": {"type": "Point", "coordinates": [8.5162511, 47.4033513]}, "properties": {"amenity": null, "name": null}}, {"type": "Feature", "geometry": {"type": "Point", "coordinates": [8.5163523, 47.403252]}, "properties": {"amenity": null, "name": null}}, {"type": "Feature", "geometry": {"type": "Point", "coordinates": [8.4823067, 47.3963892]}, "properties": {"amenity": "restaurant", "name": "Villa Grillhaus"}}, {"type": "Feature", "geometry": {"type": "Point", "coordinates": [8.5296864, 47.4487658]}, "properties": {"amenity": null, "name": null}}, {"type": "Feature", "geometry": {"type": "Point", "coordinates": [8.5298432, 47.4487769]}, "properties": {"amenity": null, "name": null}}, {"type": "Feature", "geometry": {"type": "Point", "coordinates": [8.5298481, 47.4487397]}, "properties": {"amenity": null, "name": null}}, {"type": "Feature", "geometry": {"type": "Point", "coordinates": [8.5298418, 47.448645]}, "properties": {"amenity": null, "name": null}}, {"type": "Feature", "geometry": {"type": "Point", "coordinates": [8.5298693, 47.4486095]}, "properties": {"amenity": null, "name": null}}, {"type": "Feature", "geometry": {"type": "Point", "coordinates": [8.5297089, 47.4485969]}, "properties": {"amenity": null, "name": null}}, {"type": "Feature", "geometry": {"type": "Point", "coordinates": [8.5359519, 47.4084172]}, "properties": {"amenity": null, "name": null}}, {"type": "Feature", "geometry": {"type": "Point", "coordinates": [8.5362823, 47.4083288]}, "properties": {"amenity": null, "name": null}}, {"type": "Feature", "geometry": {"type": "Point", "coordinates": [8.5361345, 47.4080758]}, "properties": {"amenity": null, "name": null}}, {"type": "Feature", "geometry": {"type": "Point", "coordinates": [8.5357423, 47.4081756]}, "properties": {"amenity": null, "name": null}}, {"type": "Feature", "geometry": {"type": "Point", "coordinates": [8.4358327, 47.3550979]}, "properties": {"amenity": null, "name": null}}, {"type": "Feature", "geometry": {"type": "Point", "coordinates": [8.4356468, 47.3551576]}, "properties": {"amenity": null, "name": null}}, {"type": "Feature", "geometry": {"type": "Point", "coordinates": [8.4355415, 47.3550383]}, "properties": {"amenity": null, "name": null}}, {"type": "Feature", "geometry": {"type": "Point", "coordinates": [8.4357451, 47.3549729]}, "properties": {"amenity": null, "name": null}}, {"type": "Feature", "geometry": {"type": "Point", "coordinates": [8.4369167, 47.3538223]}, "properties": {"amenity": null, "name": null}}, {"type": "Feature", "geometry": {"type": "Point", "coordinates": [8.5197395, 47.3930337]}, "properties": {"amenity": "cafe", "name": "Kafi Tintefisch"}}, {"type": "Feature", "geometry": {"type": "Point", "coordinates": [8.5416447, 47.3832538]}, "properties": {"amenity": "restaurant", "name": "Drei Stuben"}}, {"type": "Feature", "geometry": {"type": "Point", "coordinates": [8.5413332, 47.383118]}, "properties": {"amenity": "restaurant", "name": "Valento"}}, {"type": "Feature", "geometry": {"type": "Point", "coordinates": [8.5611729, 47.4300355]}, "properties": {"amenity": null, "name": null}}, {"type": "Feature", "geometry": {"type": "Point", "coordinates": [8.5616237, 47.4299327]}, "properties": {"amenity": null, "name": null}}, {"type": "Feature", "geometry": {"type": "Point", "coordinates": [8.5614646, 47.4298296]}, "properties": {"amenity": null, "name": null}}, {"type": "Feature", "geometry": {"type": "Point", "coordinates": [8.561332, 47.4301386]}, "properties": {"amenity": null, "name": null}}, {"type": "Feature", "geometry": {"type": "Point", "coordinates": [8.5432628, 47.3745643]}, "properties": {"amenity": "cafe", "name": "Marea"}}, {"type": "Feature", "geometry": {"type": "Point", "coordinates": [8.543598, 47.3754177]}, "properties": {"amenity": "bar", "name": "Caf\u00e9 Canale Grande"}}, {"type": "Feature", "geometry": {"type": "Point", "coordinates": [8.6190262, 47.3976536]}, "properties": {"amenity": null, "name": null}}, {"type": "Feature", "geometry": {"type": "Point", "coordinates": [8.6191744, 47.3975545]}, "properties": {"amenity": null, "name": null}}, {"type": "Feature", "geometry": {"type": "Point", "coordinates": [8.6193268, 47.3976572]}, "properties": {"amenity": null, "name": null}}, {"type": "Feature", "geometry": {"type": "Point", "coordinates": [8.6191773, 47.3977572]}, "properties": {"amenity": null, "name": null}}, {"type": "Feature", "geometry": {"type": "Point", "coordinates": [8.6138893, 47.3965547]}, "properties": {"amenity": "cafe", "name": "Topolino Plaza"}}, {"type": "Feature", "geometry": {"type": "Point", "coordinates": [8.6132097, 47.3964338]}, "properties": {"amenity": "restaurant", "name": "Miglio"}}, {"type": "Feature", "geometry": {"type": "Point", "coordinates": [8.6135679, 47.3962547]}, "properties": {"amenity": "restaurant", "name": "Safran"}}, {"type": "Feature", "geometry": {"type": "Point", "coordinates": [8.6141485, 47.3966231]}, "properties": {"amenity": null, "name": null}}, {"type": "Feature", "geometry": {"type": "Point", "coordinates": [8.6143508, 47.3966442]}, "properties": {"amenity": null, "name": null}}, {"type": "Feature", "geometry": {"type": "Point", "coordinates": [8.6143692, 47.3965629]}, "properties": {"amenity": null, "name": null}}, {"type": "Feature", "geometry": {"type": "Point", "coordinates": [8.614167, 47.3965417]}, "properties": {"amenity": null, "name": null}}, {"type": "Feature", "geometry": {"type": "Point", "coordinates": [8.6173975, 47.3968792]}, "properties": {"amenity": "restaurant", "name": "Villa Barone"}}, {"type": "Feature", "geometry": {"type": "Point", "coordinates": [8.5243031, 47.3933532]}, "properties": {"amenity": "fast_food", "name": "Fresh Orient"}}, {"type": "Feature", "geometry": {"type": "Point", "coordinates": [8.6239761, 47.3952273]}, "properties": {"amenity": "cafe", "name": "Cafe M\u00fchle"}}, {"type": "Feature", "geometry": {"type": "Point", "coordinates": [8.5374525, 47.3801255]}, "properties": {"amenity": "cafe", "name": "Starbucks"}}, {"type": "Feature", "geometry": {"type": "Point", "coordinates": [8.4369848, 47.3539905]}, "properties": {"amenity": null, "name": null}}, {"type": "Feature", "geometry": {"type": "Point", "coordinates": [8.5800496, 47.4560392]}, "properties": {"amenity": null, "name": null}}, {"type": "Feature", "geometry": {"type": "Point", "coordinates": [8.5797881, 47.4560508]}, "properties": {"amenity": null, "name": null}}, {"type": "Feature", "geometry": {"type": "Point", "coordinates": [8.5799149, 47.4559616]}, "properties": {"amenity": null, "name": null}}, {"type": "Feature", "geometry": {"type": "Point", "coordinates": [8.579876, 47.4561013]}, "properties": {"amenity": null, "name": null}}, {"type": "Feature", "geometry": {"type": "Point", "coordinates": [8.5795854, 47.4540086]}, "properties": {"amenity": null, "name": null}}, {"type": "Feature", "geometry": {"type": "Point", "coordinates": [8.5797644, 47.4540233]}, "properties": {"amenity": null, "name": null}}, {"type": "Feature", "geometry": {"type": "Point", "coordinates": [8.5797355, 47.4541868]}, "properties": {"amenity": null, "name": null}}, {"type": "Feature", "geometry": {"type": "Point", "coordinates": [8.5358071, 47.3681056]}, "properties": {"amenity": "cafe", "name": "Starbucks"}}, {"type": "Feature", "geometry": {"type": "Point", "coordinates": [8.4847081, 47.3750672]}, "properties": {"amenity": null, "name": null}}, {"type": "Feature", "geometry": {"type": "Point", "coordinates": [8.4845766, 47.3752151]}, "properties": {"amenity": null, "name": null}}, {"type": "Feature", "geometry": {"type": "Point", "coordinates": [8.4847712, 47.3752945]}, "properties": {"amenity": null, "name": null}}, {"type": "Feature", "geometry": {"type": "Point", "coordinates": [8.4847746, 47.3751457]}, "properties": {"amenity": null, "name": null}}, {"type": "Feature", "geometry": {"type": "Point", "coordinates": [8.4848082, 47.375108]}, "properties": {"amenity": null, "name": null}}, {"type": "Feature", "geometry": {"type": "Point", "coordinates": [8.5258392, 47.3749683]}, "properties": {"amenity": "bar", "name": "Central"}}, {"type": "Feature", "geometry": {"type": "Point", "coordinates": [8.5109337, 47.3781646]}, "properties": {"amenity": "restaurant", "name": "Hardhof"}}, {"type": "Feature", "geometry": {"type": "Point", "coordinates": [8.5132591, 47.3752564]}, "properties": {"amenity": "cafe", "name": "Kafi Dihei"}}, {"type": "Feature", "geometry": {"type": "Point", "coordinates": [8.5270372, 47.3787576]}, "properties": {"amenity": "restaurant", "name": "Gambrinus"}}, {"type": "Feature", "geometry": {"type": "Point", "coordinates": [8.5314772, 47.3851076]}, "properties": {"amenity": "cafe", "name": "Caf\u00e9 Lang"}}, {"type": "Feature", "geometry": {"type": "Point", "coordinates": [8.5801626, 47.4527192]}, "properties": {"amenity": null, "name": null}}, {"type": "Feature", "geometry": {"type": "Point", "coordinates": [8.5801293, 47.4528101]}, "properties": {"amenity": null, "name": null}}, {"type": "Feature", "geometry": {"type": "Point", "coordinates": [8.5803039, 47.4529126]}, "properties": {"amenity": null, "name": null}}, {"type": "Feature", "geometry": {"type": "Point", "coordinates": [8.5803623, 47.4527526]}, "properties": {"amenity": null, "name": null}}, {"type": "Feature", "geometry": {"type": "Point", "coordinates": [8.6001887, 47.4141717]}, "properties": {"amenity": "restaurant", "name": "Pak Lok Haus"}}, {"type": "Feature", "geometry": {"type": "Point", "coordinates": [8.536128, 47.3740895]}, "properties": {"amenity": "restaurant", "name": "AN"}}, {"type": "Feature", "geometry": {"type": "Point", "coordinates": [8.534363, 47.3730935]}, "properties": {"amenity": "cafe", "name": "Babu's Bakery & Coffeehouse"}}, {"type": "Feature", "geometry": {"type": "Point", "coordinates": [8.5295411, 47.3827935]}, "properties": {"amenity": "bar", "name": "Kasheme"}}, {"type": "Feature", "geometry": {"type": "Point", "coordinates": [8.4887363, 47.3906861]}, "properties": {"amenity": "restaurant", "name": "Akara\u2018s"}}, {"type": "Feature", "geometry": {"type": "Point", "coordinates": [8.4868415, 47.3878129]}, "properties": {"amenity": "fast_food", "name": "Big Baba's"}}, {"type": "Feature", "geometry": {"type": "Point", "coordinates": [8.4854595, 47.387399]}, "properties": {"amenity": "restaurant", "name": "Brasserie Spirgarten"}}, {"type": "Feature", "geometry": {"type": "Point", "coordinates": [8.5000558, 47.3831915]}, "properties": {"amenity": "restaurant", "name": "Restaurant Singapore"}}, {"type": "Feature", "geometry": {"type": "Point", "coordinates": [8.5993968, 47.3983442]}, "properties": {"amenity": "restaurant", "name": "Schumacher Bistro"}}, {"type": "Feature", "geometry": {"type": "Point", "coordinates": [8.4482564, 47.3960411]}, "properties": {"amenity": "restaurant", "name": "Salmen"}}, {"type": "Feature", "geometry": {"type": "Point", "coordinates": [8.5447395, 47.3752173]}, "properties": {"amenity": "restaurant", "name": "Zhong Hua"}}, {"type": "Feature", "geometry": {"type": "Point", "coordinates": [8.545208, 47.3791435]}, "properties": {"amenity": "restaurant", "name": "Restaurant Bocuci: Bottega & Cucina"}}, {"type": "Feature", "geometry": {"type": "Point", "coordinates": [8.5469246, 47.3799672]}, "properties": {"amenity": "restaurant", "name": "Restaurant Haldenbach"}}, {"type": "Feature", "geometry": {"type": "Point", "coordinates": [8.5479785, 47.38053]}, "properties": {"amenity": "fast_food", "name": "Z\u00fcri Bistro"}}, {"type": "Feature", "geometry": {"type": "Point", "coordinates": [8.5483371, 47.3805744]}, "properties": {"amenity": "restaurant", "name": "Ristorante Al Forno da Angelo"}}, {"type": "Feature", "geometry": {"type": "Point", "coordinates": [8.547949, 47.3784731]}, "properties": {"amenity": "fast_food", "name": "Domino's"}}, {"type": "Feature", "geometry": {"type": "Point", "coordinates": [8.5479609, 47.3782514]}, "properties": {"amenity": "cafe", "name": "Caf\u00e9 Oberstrass"}}, {"type": "Feature", "geometry": {"type": "Point", "coordinates": [8.547952, 47.3786854]}, "properties": {"amenity": "restaurant", "name": "Hot Pasta"}}, {"type": "Feature", "geometry": {"type": "Point", "coordinates": [8.5479597, 47.3796283]}, "properties": {"amenity": "fast_food", "name": "Lemon Grass"}}, {"type": "Feature", "geometry": {"type": "Point", "coordinates": [8.5436817, 47.3726776]}, "properties": {"amenity": "cafe", "name": "Henrici"}}, {"type": "Feature", "geometry": {"type": "Point", "coordinates": [8.616534, 47.3993129]}, "properties": {"amenity": "cafe", "name": "s' Werkstattkafi"}}, {"type": "Feature", "geometry": {"type": "Point", "coordinates": [8.5444869, 47.3740086]}, "properties": {"amenity": "restaurant", "name": "Wien Zeile"}}, {"type": "Feature", "geometry": {"type": "Point", "coordinates": [8.5444638, 47.3742828]}, "properties": {"amenity": "bar", "name": "Predigerhof"}}, {"type": "Feature", "geometry": {"type": "Point", "coordinates": [8.5446244, 47.3733385]}, "properties": {"amenity": "bar", "name": "Lucy's Bar"}}, {"type": "Feature", "geometry": {"type": "Point", "coordinates": [8.5430124, 47.3735273]}, "properties": {"amenity": "restaurant", "name": "Bianchi"}}, {"type": "Feature", "geometry": {"type": "Point", "coordinates": [8.5434614, 47.3734009]}, "properties": {"amenity": "restaurant", "name": "Weinschenke"}}, {"type": "Feature", "geometry": {"type": "Point", "coordinates": [8.5436343, 47.3733831]}, "properties": {"amenity": "restaurant", "name": "Simon's Steakhouse"}}, {"type": "Feature", "geometry": {"type": "Point", "coordinates": [8.5440513, 47.3733914]}, "properties": {"amenity": "cafe", "name": "Colibri"}}, {"type": "Feature", "geometry": {"type": "Point", "coordinates": [8.5432845, 47.3726391]}, "properties": {"amenity": "bar", "name": "Blue Monkey"}}, {"type": "Feature", "geometry": {"type": "Point", "coordinates": [8.5433042, 47.372579]}, "properties": {"amenity": "restaurant", "name": "Blue Monkey"}}, {"type": "Feature", "geometry": {"type": "Point", "coordinates": [8.5431629, 47.3731387]}, "properties": {"amenity": "bar", "name": "six"}}, {"type": "Feature", "geometry": {"type": "Point", "coordinates": [8.5432846, 47.3731353]}, "properties": {"amenity": "bar", "name": "Regenbogen"}}, {"type": "Feature", "geometry": {"type": "Point", "coordinates": [8.5446831, 47.3731853]}, "properties": {"amenity": "restaurant", "name": "Madrid"}}, {"type": "Feature", "geometry": {"type": "Point", "coordinates": [8.5433829, 47.3724834]}, "properties": {"amenity": "restaurant", "name": "The Butcher"}}, {"type": "Feature", "geometry": {"type": "Point", "coordinates": [8.5452101, 47.3724243]}, "properties": {"amenity": "restaurant", "name": "Bauern Sch\u00e4nke"}}, {"type": "Feature", "geometry": {"type": "Point", "coordinates": [8.5430379, 47.373723]}, "properties": {"amenity": "bar", "name": "01bar"}}, {"type": "Feature", "geometry": {"type": "Point", "coordinates": [8.571762, 47.4040619]}, "properties": {"amenity": "restaurant", "name": "Restaurant Gasthof Hirschen"}}, {"type": "Feature", "geometry": {"type": "Point", "coordinates": [8.6211314, 47.3992293]}, "properties": {"amenity": "restaurant", "name": "Peking Garden"}}, {"type": "Feature", "geometry": {"type": "Point", "coordinates": [8.5384389, 47.3689525]}, "properties": {"amenity": "restaurant", "name": "Coco Grill & Bar"}}, {"type": "Feature", "geometry": {"type": "Point", "coordinates": [8.5341088, 47.3672271]}, "properties": {"amenity": "fast_food", "name": "spectaturs"}}, {"type": "Feature", "geometry": {"type": "Point", "coordinates": [8.5328922, 47.3702331]}, "properties": {"amenity": "restaurant", "name": "Nagasui"}}, {"type": "Feature", "geometry": {"type": "Point", "coordinates": [8.5367856, 47.3684665]}, "properties": {"amenity": "bar", "name": "La Stanza"}}, {"type": "Feature", "geometry": {"type": "Point", "coordinates": [8.536332, 47.3682598]}, "properties": {"amenity": "cafe", "name": "Nocciolina"}}, {"type": "Feature", "geometry": {"type": "Point", "coordinates": [8.4884573, 47.3915497]}, "properties": {"amenity": "cafe", "name": "Caff\u00e8 Spettacolo"}}, {"type": "Feature", "geometry": {"type": "Point", "coordinates": [8.5180665, 47.3751657]}, "properties": {"amenity": "fast_food", "name": "Pizza Kebab Lochergut"}}, {"type": "Feature", "geometry": {"type": "Point", "coordinates": [8.5172402, 47.3902919]}, "properties": {"amenity": "restaurant", "name": "Angkor"}}, {"type": "Feature", "geometry": {"type": "Point", "coordinates": [8.4784881, 47.3909081]}, "properties": {"amenity": null, "name": null}}, {"type": "Feature", "geometry": {"type": "Point", "coordinates": [8.4782652, 47.3910004]}, "properties": {"amenity": null, "name": null}}, {"type": "Feature", "geometry": {"type": "Point", "coordinates": [8.4784913, 47.390996]}, "properties": {"amenity": null, "name": null}}, {"type": "Feature", "geometry": {"type": "Point", "coordinates": [8.4783454, 47.3910891]}, "properties": {"amenity": null, "name": null}}, {"type": "Feature", "geometry": {"type": "Point", "coordinates": [8.543543, 47.374778]}, "properties": {"amenity": "restaurant", "name": "toscano"}}, {"type": "Feature", "geometry": {"type": "Point", "coordinates": [8.5433961, 47.3746904]}, "properties": {"amenity": "bar", "name": "Vista Bar"}}, {"type": "Feature", "geometry": {"type": "Point", "coordinates": [8.543731, 47.3745675]}, "properties": {"amenity": "restaurant", "name": "friskfisk.ch"}}, {"type": "Feature", "geometry": {"type": "Point", "coordinates": [8.5439159, 47.3746263]}, "properties": {"amenity": "bar", "name": "Alexis Bar"}}, {"type": "Feature", "geometry": {"type": "Point", "coordinates": [8.5445108, 47.3749804]}, "properties": {"amenity": "restaurant", "name": "Walliser Keller"}}, {"type": "Feature", "geometry": {"type": "Point", "coordinates": [8.5441638, 47.3755152]}, "properties": {"amenity": "bar", "name": "Fumoir"}}, {"type": "Feature", "geometry": {"type": "Point", "coordinates": [8.5444788, 47.3755066]}, "properties": {"amenity": "bar", "name": "Safari Bar"}}, {"type": "Feature", "geometry": {"type": "Point", "coordinates": [8.544563, 47.3744425]}, "properties": {"amenity": "bar", "name": "Kame-Haus"}}, {"type": "Feature", "geometry": {"type": "Point", "coordinates": [8.5447814, 47.3746506]}, "properties": {"amenity": "bar", "name": "Linda's Beauty Bed & Breakfast"}}, {"type": "Feature", "geometry": {"type": "Point", "coordinates": [8.5447832, 47.3747617]}, "properties": {"amenity": "restaurant", "name": "Raclette Stube"}}, {"type": "Feature", "geometry": {"type": "Point", "coordinates": [8.5447223, 47.3754711]}, "properties": {"amenity": "fast_food", "name": "Holy Cow!"}}, {"type": "Feature", "geometry": {"type": "Point", "coordinates": [8.5277904, 47.3773121]}, "properties": {"amenity": "restaurant", "name": "The Bite"}}, {"type": "Feature", "geometry": {"type": "Point", "coordinates": [8.5271252, 47.3755766]}, "properties": {"amenity": "restaurant", "name": "Volkshaus"}}, {"type": "Feature", "geometry": {"type": "Point", "coordinates": [8.5261794, 47.3796168]}, "properties": {"amenity": "bar", "name": "Roxy"}}, {"type": "Feature", "geometry": {"type": "Point", "coordinates": [8.5272144, 47.3782611]}, "properties": {"amenity": "bar", "name": "Piranha Bar"}}, {"type": "Feature", "geometry": {"type": "Point", "coordinates": [8.5268634, 47.3784465]}, "properties": {"amenity": "bar", "name": "Lambada Bar Club"}}, {"type": "Feature", "geometry": {"type": "Point", "coordinates": [8.5269419, 47.3781306]}, "properties": {"amenity": "bar", "name": "Longstreet Bar Club"}}, {"type": "Feature", "geometry": {"type": "Point", "coordinates": [8.5274993, 47.3770799]}, "properties": {"amenity": "restaurant", "name": "Tavtai"}}, {"type": "Feature", "geometry": {"type": "Point", "coordinates": [8.5276576, 47.3772164]}, "properties": {"amenity": "bar", "name": "Sender"}}, {"type": "Feature", "geometry": {"type": "Point", "coordinates": [8.5272796, 47.378232]}, "properties": {"amenity": "fast_food", "name": "Piranha"}}, {"type": "Feature", "geometry": {"type": "Point", "coordinates": [8.5272308, 47.3769346]}, "properties": {"amenity": "fast_food", "name": "Biergarten"}}, {"type": "Feature", "geometry": {"type": "Point", "coordinates": [8.5260439, 47.3774408]}, "properties": {"amenity": "bar", "name": "Red Lips Cabaret Bar"}}, {"type": "Feature", "geometry": {"type": "Point", "coordinates": [8.5282242, 47.376537]}, "properties": {"amenity": "cafe", "name": "Kiosk Semal"}}, {"type": "Feature", "geometry": {"type": "Point", "coordinates": [8.5280245, 47.3764297]}, "properties": {"amenity": "bar", "name": "Egoist Cabaret Nightclub"}}, {"type": "Feature", "geometry": {"type": "Point", "coordinates": [8.527878, 47.376328]}, "properties": {"amenity": "restaurant", "name": "Brasserie Caf\u00e9 de Paris"}}, {"type": "Feature", "geometry": {"type": "Point", "coordinates": [8.5265204, 47.3774342]}, "properties": {"amenity": "cafe", "name": "Green Mango Internet Cafe Bar"}}, {"type": "Feature", "geometry": {"type": "Point", "coordinates": [8.5287783, 47.3770439]}, "properties": {"amenity": "restaurant", "name": "Ach'i"}}, {"type": "Feature", "geometry": {"type": "Point", "coordinates": [8.5284802, 47.3769262]}, "properties": {"amenity": "restaurant", "name": "Thai-Food-Corner"}}, {"type": "Feature", "geometry": {"type": "Point", "coordinates": [8.5284977, 47.3767507]}, "properties": {"amenity": "bar", "name": "Norden"}}, {"type": "Feature", "geometry": {"type": "Point", "coordinates": [8.5270821, 47.3779077]}, "properties": {"amenity": "restaurant", "name": "Stub\u00e4"}}, {"type": "Feature", "geometry": {"type": "Point", "coordinates": [8.5290029, 47.3765636]}, "properties": {"amenity": "restaurant", "name": "Tr\u00fcbli Bar"}}, {"type": "Feature", "geometry": {"type": "Point", "coordinates": [8.5273976, 47.3774727]}, "properties": {"amenity": "bar", "name": "Red Light"}}, {"type": "Feature", "geometry": {"type": "Point", "coordinates": [8.5279076, 47.3774661]}, "properties": {"amenity": "restaurant", "name": "Brauerhof"}}, {"type": "Feature", "geometry": {"type": "Point", "coordinates": [8.5257388, 47.3775725]}, "properties": {"amenity": "restaurant", "name": "Schweizer Weinstube"}}, {"type": "Feature", "geometry": {"type": "Point", "coordinates": [8.5273116, 47.378784]}, "properties": {"amenity": "bar", "name": "Lugano Bar"}}, {"type": "Feature", "geometry": {"type": "Point", "coordinates": [8.5271796, 47.3784958]}, "properties": {"amenity": "restaurant", "name": "Schweizerdegen El Papi"}}, {"type": "Feature", "geometry": {"type": "Point", "coordinates": [8.5106961, 47.3779515]}, "properties": {"amenity": "fast_food", "name": "Z\u00fcri Bistro"}}, {"type": "Feature", "geometry": {"type": "Point", "coordinates": [8.4805811, 47.3547797]}, "properties": {"amenity": null, "name": null}}, {"type": "Feature", "geometry": {"type": "Point", "coordinates": [8.4804963, 47.3547052]}, "properties": {"amenity": null, "name": null}}, {"type": "Feature", "geometry": {"type": "Point", "coordinates": [8.4805918, 47.3546553]}, "properties": {"amenity": null, "name": null}}, {"type": "Feature", "geometry": {"type": "Point", "coordinates": [8.4806766, 47.3547297]}, "properties": {"amenity": null, "name": null}}, {"type": "Feature", "geometry": {"type": "Point", "coordinates": [8.6079447, 47.3755808]}, "properties": {"amenity": "restaurant", "name": "Geeren"}}, {"type": "Feature", "geometry": {"type": "Point", "coordinates": [8.6214165, 47.3994614]}, "properties": {"amenity": "restaurant", "name": "Bahnh\u00f6fli"}}, {"type": "Feature", "geometry": {"type": "Point", "coordinates": [8.6066117, 47.4005991]}, "properties": {"amenity": "bar", "name": "Coconut Bar"}}, {"type": "Feature", "geometry": {"type": "Point", "coordinates": [8.6056204, 47.4001734]}, "properties": {"amenity": "restaurant", "name": "Lunch & More"}}, {"type": "Feature", "geometry": {"type": "Point", "coordinates": [8.5394998, 47.4148932]}, "properties": {"amenity": "restaurant", "name": "Namaste"}}, {"type": "Feature", "geometry": {"type": "Point", "coordinates": [8.5304131, 47.3873408]}, "properties": {"amenity": "bar", "name": "planet5"}}, {"type": "Feature", "geometry": {"type": "Point", "coordinates": [8.5243741, 47.3870494]}, "properties": {"amenity": "cafe", "name": "Ambrosi Coffee Bar"}}, {"type": "Feature", "geometry": {"type": "Point", "coordinates": [8.504526, 47.3627978]}, "properties": {"amenity": null, "name": null}}, {"type": "Feature", "geometry": {"type": "Point", "coordinates": [8.5069276, 47.3530461]}, "properties": {"amenity": null, "name": null}}, {"type": "Feature", "geometry": {"type": "Point", "coordinates": [8.5402167, 47.3763464]}, "properties": {"amenity": "cafe", "name": "Oskar Kowalski"}}, {"type": "Feature", "geometry": {"type": "Point", "coordinates": [8.5395824, 47.3768277]}, "properties": {"amenity": "cafe", "name": "ViCafe"}}, {"type": "Feature", "geometry": {"type": "Point", "coordinates": [8.5394487, 47.3765411]}, "properties": {"amenity": "cafe", "name": "Bachmann"}}, {"type": "Feature", "geometry": {"type": "Point", "coordinates": [8.5401477, 47.3767615]}, "properties": {"amenity": "cafe", "name": "Starbucks"}}, {"type": "Feature", "geometry": {"type": "Point", "coordinates": [8.5671437, 47.3824554]}, "properties": {"amenity": "bar", "name": "Bar Z\u00fcrichberg"}}, {"type": "Feature", "geometry": {"type": "Point", "coordinates": [8.5739059, 47.4044975]}, "properties": {"amenity": "fast_food", "name": "Rodi Take Away"}}, {"type": "Feature", "geometry": {"type": "Point", "coordinates": [8.5454244, 47.3968712]}, "properties": {"amenity": null, "name": null}}, {"type": "Feature", "geometry": {"type": "Point", "coordinates": [8.5455475, 47.3968584]}, "properties": {"amenity": null, "name": null}}, {"type": "Feature", "geometry": {"type": "Point", "coordinates": [8.5455979, 47.3970742]}, "properties": {"amenity": null, "name": null}}, {"type": "Feature", "geometry": {"type": "Point", "coordinates": [8.5454756, 47.3970874]}, "properties": {"amenity": null, "name": null}}, {"type": "Feature", "geometry": {"type": "Point", "coordinates": [8.6043207, 47.3958792]}, "properties": {"amenity": "restaurant", "name": "Sonnental"}}, {"type": "Feature", "geometry": {"type": "Point", "coordinates": [8.6171685, 47.3977281]}, "properties": {"amenity": "cafe", "name": "Hotz"}}, {"type": "Feature", "geometry": {"type": "Point", "coordinates": [8.6187267, 47.3983155]}, "properties": {"amenity": "restaurant", "name": "Punto 9"}}, {"type": "Feature", "geometry": {"type": "Point", "coordinates": [8.5308196, 47.3925569]}, "properties": {"amenity": "restaurant", "name": "Ototo - Sushi Dining"}}, {"type": "Feature", "geometry": {"type": "Point", "coordinates": [8.5120315, 47.3538785]}, "properties": {"amenity": null, "name": null}}, {"type": "Feature", "geometry": {"type": "Point", "coordinates": [8.5118039, 47.3538839]}, "properties": {"amenity": null, "name": null}}, {"type": "Feature", "geometry": {"type": "Point", "coordinates": [8.5117892, 47.3538027]}, "properties": {"amenity": null, "name": null}}, {"type": "Feature", "geometry": {"type": "Point", "coordinates": [8.6179016, 47.3985536]}, "properties": {"amenity": "restaurant", "name": "Bistro H\u00e0 N\u00f4i"}}, {"type": "Feature", "geometry": {"type": "Point", "coordinates": [8.5457621, 47.414823]}, "properties": {"amenity": "restaurant", "name": "Indian Palace"}}, {"type": "Feature", "geometry": {"type": "Point", "coordinates": [8.5432644, 47.3799445]}, "properties": {"amenity": "restaurant", "name": "Ora Thai"}}, {"type": "Feature", "geometry": {"type": "Point", "coordinates": [8.5433558, 47.3797772]}, "properties": {"amenity": "restaurant", "name": "Casa Ferlin"}}, {"type": "Feature", "geometry": {"type": "Point", "coordinates": [8.5294544, 47.3594111]}, "properties": {"amenity": "cafe", "name": "Treffcaf\u00e9"}}, {"type": "Feature", "geometry": {"type": "Point", "coordinates": [8.5272804, 47.3874963]}, "properties": {"amenity": "restaurant", "name": "Limmathof"}}, {"type": "Feature", "geometry": {"type": "Point", "coordinates": [8.528489, 47.3871627]}, "properties": {"amenity": "restaurant", "name": "Alpenrose"}}, {"type": "Feature", "geometry": {"type": "Point", "coordinates": [8.5290357, 47.3863348]}, "properties": {"amenity": "restaurant", "name": "a fatt"}}, {"type": "Feature", "geometry": {"type": "Point", "coordinates": [8.5321502, 47.3847107]}, "properties": {"amenity": "cafe", "name": "Caffetteria am Limmatplatz"}}, {"type": "Feature", "geometry": {"type": "Point", "coordinates": [8.5356474, 47.3821082]}, "properties": {"amenity": "restaurant", "name": "P\u00fcente"}}, {"type": "Feature", "geometry": {"type": "Point", "coordinates": [8.5319218, 47.3842264]}, "properties": {"amenity": "restaurant", "name": "Millennium"}}, {"type": "Feature", "geometry": {"type": "Point", "coordinates": [8.5233543, 47.3787172]}, "properties": {"amenity": "restaurant", "name": "marktk\u00fcche"}}, {"type": "Feature", "geometry": {"type": "Point", "coordinates": [8.5378013, 47.3714586]}, "properties": {"amenity": "restaurant", "name": "Carlton"}}, {"type": "Feature", "geometry": {"type": "Point", "coordinates": [8.6244485, 47.4004581]}, "properties": {"amenity": null, "name": null}}, {"type": "Feature", "geometry": {"type": "Point", "coordinates": [8.6245129, 47.4004615]}, "properties": {"amenity": null, "name": null}}, {"type": "Feature", "geometry": {"type": "Point", "coordinates": [8.6244102, 47.400495]}, "properties": {"amenity": null, "name": null}}, {"type": "Feature", "geometry": {"type": "Point", "coordinates": [8.6245423, 47.400502]}, "properties": {"amenity": null, "name": null}}, {"type": "Feature", "geometry": {"type": "Point", "coordinates": [8.6245028, 47.4005399]}, "properties": {"amenity": null, "name": null}}, {"type": "Feature", "geometry": {"type": "Point", "coordinates": [8.6244386, 47.4005357]}, "properties": {"amenity": null, "name": null}}, {"type": "Feature", "geometry": {"type": "Point", "coordinates": [8.5246559, 47.3927374]}, "properties": {"amenity": "cafe", "name": "R\u00f6schibach"}}, {"type": "Feature", "geometry": {"type": "Point", "coordinates": [8.5536721, 47.3648163]}, "properties": {"amenity": "cafe", "name": "Starbucks"}}, {"type": "Feature", "geometry": {"type": "Point", "coordinates": [8.5410753, 47.4136892]}, "properties": {"amenity": "restaurant", "name": "Coop Restaurant"}}, {"type": "Feature", "geometry": {"type": "Point", "coordinates": [8.5466029, 47.3760747]}, "properties": {"amenity": "cafe", "name": "Einstein & Zweistein"}}, {"type": "Feature", "geometry": {"type": "Point", "coordinates": [8.5242765, 47.3522682]}, "properties": {"amenity": null, "name": null}}, {"type": "Feature", "geometry": {"type": "Point", "coordinates": [8.5244457, 47.3523179]}, "properties": {"amenity": null, "name": null}}, {"type": "Feature", "geometry": {"type": "Point", "coordinates": [8.5244224, 47.3521584]}, "properties": {"amenity": null, "name": null}}, {"type": "Feature", "geometry": {"type": "Point", "coordinates": [8.5245081, 47.3522709]}, "properties": {"amenity": null, "name": null}}, {"type": "Feature", "geometry": {"type": "Point", "coordinates": [8.5243601, 47.3523191]}, "properties": {"amenity": null, "name": null}}, {"type": "Feature", "geometry": {"type": "Point", "coordinates": [8.5243992, 47.3522896]}, "properties": {"amenity": null, "name": null}}, {"type": "Feature", "geometry": {"type": "Point", "coordinates": [8.5400652, 47.3901801]}, "properties": {"amenity": "restaurant", "name": "La Casa"}}, {"type": "Feature", "geometry": {"type": "Point", "coordinates": [8.5431484, 47.3847859]}, "properties": {"amenity": "cafe", "name": "Sorell Rex"}}, {"type": "Feature", "geometry": {"type": "Point", "coordinates": [8.5394452, 47.3905675]}, "properties": {"amenity": "restaurant", "name": "Arctika"}}, {"type": "Feature", "geometry": {"type": "Point", "coordinates": [8.5328994, 47.3715412]},